[{"html_attributions": [], "results": [{"business_status": "OPERATIONAL", "geometry": {"location": {"lat": 39.6850367, "lng": -104.9873618}, "viewport": {"northeast": {"lat": 39.68637282989272, "lng": -104.9860778201073}, "southwest": {"lat": 39.68367317010728, "lng": -104.9887774798927}}}, "icon": "https://maps.gstatic.com/mapfiles/place_api/icons/v1/png_71/generic_business-71.png", "icon_background_color": "#7B9EB0", "icon_mask_base_uri": "https://maps.gstatic.com/mapfiles/place_api/icons/v2/generic_pinlet", "name": "Public Offering Brewing Company", "opening_hours": {"open_now": false}, "photos": [{"height": 1067, "html_attributions": ["<a href=\"https://maps.google.com/maps/contrib/103508513682706160260\">A Google User</a>"], "photo_reference": "AcJnMuHEFsob4OdhaUxknPW2jAGtWoxvf0Tw8wJXs0onh3C5Tk_PPvidKQxQvLgybh-xCyU3UBp-O69ykB0E0aZ0z3pajU_2-yZljzGcoWhsSTW_t7IO4PMcTAvQd530lCbNfpcXYj8ptdTcXGhdutwPK80jQXRgoG0HUm7VFpe9oKtF9DxH", "width": 1600}], "place_id": "ChIJNZVXX9R_bIcR9omnIc5b7fk", "plus_code": {"compound_code": "M2P7+23 Denver, Colorado", "global_code": "85FQM2P7+23"}, "rating": 4.8, "reference": "ChIJNZVXX9R_bIcR9omnIc5b7fk", "scope": "GOOGLE", "types": ["point_of_interest", "food", "establishment"], "user_ratings_total": 66, "vicinity": "1736 S Broadway, Denver"}, {"business_status": "OPERATIONAL", "geometry": {"location": {"lat": 39.6663717, "lng": -105.1619611}, "viewport": {"northeast": {"lat": 39.66783072989272, "lng": -105.1607521701073}, "southwest": {"lat": 39.66513107010728, "lng": -105.1634518298927}}}, "icon": "https://maps.gstatic.com/mapfiles/place_api/icons/v1/png_71/generic_business-71.png", "icon_background_color": "#7B9EB0", "icon_mask_base_uri": "https://maps.gstatic.com/mapfiles/place_api/icons/v2/generic_pinlet", "name": "Eat+Drink Denver Pass", "opening_hours": {"open_now": true}, "photos": [{"height": 849, "html_attributions": ["<a href=\"https://maps.google.com/maps/contrib/110722667644396489928\">A Google User</a>"], "photo_reference": "AcJnMuGlXvHxzgwE0-GK_IyTNnzo3F_q4Te7rzoIgx80iNbKoq7ZnvlUH2suYx6GvRVwwaLwgCIMTpHkUFnXmDWBQOGDkY7kkESBQ0nlkSQ-FtQ2NU08TRUlIjLx9A_FyJJ3HZCeqC9wK7uSxxbmsvfFH-Ln0mybZf3FZ5HDMJlJCMWLi_MS", "width": 431}], "place_id": "ChIJ3-KTTsODa4cReh3dLQF3AnI", "plus_code": {"compound_code": "MR8Q+G6 Lakewood, Colorado", "global_code": "85FPMR8Q+G6"}, "rating": 4.9, "reference": "ChIJ3-KTTsODa4cReh3dLQF3AnI", "scope": "GOOGLE", "types": ["bar", "restaurant", "point_of_interest", "food", "establishment"], "user_ratings_total": 102, "vicinity": "14550 W Amherst Pl, Lakewood"}, {"business_status": "OPERATIONAL", "geometry": {"location": {"lat": 39.6135558, "lng": -105.0177242}, "viewport": {"northeast": {"lat": 39.61495557989272, "lng": -105.0163710201073}, "southwest": {"lat": 39.61225592010727, "lng": -105.0190706798927}}}, "icon": "https://maps.gstatic.com/mapfiles/place_api/icons/v1/png_71/bar-71.png", "icon_background_color": "#FF9E67", "icon_mask_base_uri": "https://maps.gstatic.com/mapfiles/place_api/icons/v2/bar_pinlet", "name": "Jake's Brew Bar", "opening_hours": {"open_now": false}, "photos": [{"height": 3000, "html_attributions": ["<a href=\"https://maps.google.com/maps/contrib/108573788287485667279\">A Google User</a>"], "photo_reference": "AcJnMuHq4jMyxMcrfelC5lM4FB5YYVwGwhvC_qwZbf8ObjK5RjvkY2oTXO9x8ZYDK0uENUmMFJ6NN8EINF11B1-ZM9WGs2ierAUwKIr6nx3GhRIVYUL9acUSn3-sMTg_NeIcRV7DlAuG31PqKVTBt4BEsTkEjpazVn9mUWmoMirAq9bQk3Yv", "width": 4000}], "place_id": "ChIJ2VK7JzOAbIcR0MnuaHK6SzQ", "plus_code": {"compound_code": "JX7J+9W Littleton, Colorado", "global_code": "85FPJX7J+9W"}, "price_level": 2, "rating": 4.7, "reference": "ChIJ2VK7JzOAbIcR0MnuaHK6SzQ", "scope": "GOOGLE", "types": ["liquor_store", "bar", "restaurant", "point_of_interest", "food", "store", "establishment"], "user_ratings_total": 639, "vicinity": "2530 Main St, Littleton"}, {"business_status": "OPERATIONAL", "geometry": {"location": {"lat": 39.5936492, "lng": -105.0250302}, "viewport": {"northeast": {"lat": 39.59499957989272, "lng": -105.0235752201073}, "southwest": {"lat": 39.59229992010727, "lng": -105.0262748798927}}}, "icon": "https://maps.gstatic.com/mapfiles/place_api/icons/v1/png_71/restaurant-71.png", "icon_background_color": "#FF9E67", "icon_mask_base_uri": "https://maps.gstatic.com/mapfiles/place_api/icons/v2/restaurant_pinlet", "name": "Farm House Restaurant at Breckenridge Brewery", "opening_hours": {"open_now": false}, "photos": [{"height": 2252, "html_attributions": ["<a href=\"https://maps.google.com/maps/contrib/118335961948555455872\">Jimmy Allen</a>"], "photo_reference": "AcJnMuEWhq06EKntJsS34DGj19XHuxlyEdD8xlngJ1HE4Bzv8GcoPyzBkEzLNTKTYzN-4FN8xhcZyEYUXo6A-PhE05Tvc_NpZkc7EQ5pmK9R8pzfAzx4Q7Dtr61YwNn6hkzN6RueALvcN3Bt3dy6VHl3nb-vpT678JezMDbgNG2RSQagV2DX", "width": 4000}], "place_id": "ChIJt6GdlG-BbIcRJp8VTVnXR8g", "plus_code": {"compound_code": "HXVF+FX Littleton, Colorado", "global_code": "85FPHXVF+FX"}, "price_level": 2, "rating": 4.4, "reference": "ChIJt6GdlG-BbIcRJp8VTVnXR8g", "scope": "GOOGLE", "types": ["restaurant", "point_of_interest", "food", "establishment"], "user_ratings_total": 764, "vicinity": "2990 Brewery Ln, Littleton"}, {"business_status": "OPERATIONAL", "geometry": {"location": {"lat": 39.6940474, "lng": -104.987285}, "viewport": {"northeast": {"lat": 39.69540127989272, "lng": -104.9858775701073}, "southwest": {"lat": 39.69270162010727, "lng": -104.9885772298927}}}, "icon": "https://maps.gstatic.com/mapfiles/place_api/icons/v1/png_71/generic_business-71.png", "icon_background_color": "#7B9EB0", "icon_mask_base_uri": "https://maps.gstatic.com/mapfiles/place_api/icons/v2/generic_pinlet", "name": "Burns Family Artisan Ales", "opening_hours": {"open_now": false}, "photos": [{"height": 4032, "html_attributions": ["<a href=\"https://maps.google.com/maps/contrib/108900690769333392912\">Jason Bach</a>"], "photo_reference": "AcJnMuG6FWAuyTSccXqsJXW-Q8R2c5Z8FkhAd6vXa7ywPtS_3-VujyvofIWDb_pkYCLlU9MbAA2ZJ7te-VFf8yfgu2YNNiwKWp4eYkd2NC5k2D1lFCUOSshPrTGPrWepSVENa0GnihQWorhNszalhpTUREjuI1aY7Pq5bLRB5FX2PQ7EfVka", "width": 3024}], "place_id": "ChIJE7cnjrB_bIcRRkTHP2GYbp0", "plus_code": {"compound_code": "M2V7+J5 Denver, Colorado", "global_code": "85FQM2V7+J5"}, "rating": 5, "reference": "ChIJE7cnjrB_bIcRRkTHP2GYbp0", "scope": "GOOGLE", "types": ["bar", "restaurant", "point_of_interest", "food", "establishment"], "user_ratings_total": 7, "vicinity": "1236 S Broadway, Denver"}, {"business_status": "OPERATIONAL", "geometry": {"location": {"lat": 39.63708460000001, "lng": -105.0249975}, "viewport": {"northeast": {"lat": 39.63843707989272, "lng": -105.0238261201073}, "southwest": {"lat": 39.63573742010728, "lng": -105.0265257798927}}}, "icon": "https://maps.gstatic.com/mapfiles/place_api/icons/v1/png_71/generic_business-71.png", "icon_background_color": "#7B9EB0", "icon_mask_base_uri": "https://maps.gstatic.com/mapfiles/place_api/icons/v2/generic_pinlet", "name": "On the Fence Kombucha", "opening_hours": {"open_now": false}, "photos": [{"height": 4032, "html_attributions": ["<a href=\"https://maps.google.com/maps/contrib/100662770799999763099\">A Google User</a>"], "photo_reference": "AcJnMuFxWyBZ4Rkze9eTpD3dsSO6G9i9t1gMPoGK1cVTNo6BreTy6uM6CTupY3QaleIb6dpto7c1TmpW-qN-WaCFTJMyBh4hUmUm6Z2dDz7rVBQT2uCLPnINyXcALawL-_vjIfwVo9KTdRxw5MKBPmZiB5vgeQB_z7AuFhuYRHyOAx0zyrA", "width": 3024}], "place_id": "ChIJv0DQo02BbIcRCgX6LirQK0Y", "plus_code": {"compound_code": "JXPG+R2 Englewood, Colorado", "global_code": "85FPJXPG+R2"}, "rating": 5, "reference": "ChIJv0DQo02BbIcRCgX6LirQK0Y", "scope": "GOOGLE", "types": ["point_of_interest", "food", "establishment"], "user_ratings_total": 10, "vicinity": "4388 S Federal Blvd, Englewood"}], "status": "OK"}]