[{"html_attributions": [], "next_page_token": "AcJnMuGxJ0I5ljy2eQHK73i3gNYxXDfjOj0iYnjEgOIS9gCU0mgWkA9ziD7a_c4VIEKbnvgvklM10wE3lyatRc-S9KIfRf3bNHHXDONcUQaUD4Agjhwsb2oCt97b6_dFhKsB6WXI0oyQbHjyXb2zmclzrAVlKpemrNq5BKGMhl7yLVQYwmyXIw4bkJkhanDK9macfn1JguDgKokm_RTn9FCXA23HCelv4t5_em6TzFqjqWa0Y-9yECBn-HTMr7ouESsZTiFg0QYmb7Npp18zVgE4gjNY94UwqLv-52xfUfMPP2IylELgcLpy189yzbRqkxHskF_A4mgXDMZx_f-4ZBxJg3ssT-PNhUC215ViHNjbvaWG9RpSw_wZ-YN9HxJ2NT0TZvVQUjJHmPRdflc5dh19TCsf4m_yn4m518ITzObRV1a8wj-VMDqC4savlhpN1A", "results": [{"business_status": "OPERATIONAL", "geometry": {"location": {"lat": 39.9605825, "lng": -105.1202766}, "viewport": {"northeast": {"lat": 39.96189447989272, "lng": -105.1188049201073}, "southwest": {"lat": 39.95919482010728, "lng": -105.1215045798927}}}, "icon": "https://maps.gstatic.com/mapfiles/place_api/icons/v1/png_71/generic_business-71.png", "icon_background_color": "#7B9EB0", "icon_mask_base_uri": "https://maps.gstatic.com/mapfiles/place_api/icons/v2/generic_pinlet", "name": "Crystal Springs Brewing Co. - The Brewers' Lounge at the Production Facility", "photos": [{"height": 4896, "html_attributions": ["<a href=\"https://maps.google.com/maps/contrib/117906712647796992893\">A Google User</a>"], "photo_reference": "AcJnMuHvDYSfKewcGqz93y2EKo6ukrF3wU_8hI4JWLAAONfcnGTxiX8dBkc40YRb48q0H63Y95Dxk90B4jGXN3h9b5VDqdT27n8xLUpDdgkwkDYxCzF8IpvS1tZI3EZERcpnRkyGOclrkm4FbPvIlYXUoMs1NH5CHCKhOtWBv6-VCuBvazpk", "width": 3672}], "place_id": "ChIJfao9YFOLa4cR9-7DKm8DwWI", "plus_code": {"compound_code": "XV6H+6V Louisville, Colorado", "global_code": "85FPXV6H+6V"}, "rating": 4.7, "reference": "ChIJfao9YFOLa4cR9-7DKm8DwWI", "scope": "GOOGLE", "types": ["food", "point_of_interest", "establishment"], "user_ratings_total": 112, "vicinity": "657 S Taylor Ave E, Louisville"}, {"business_status": "OPERATIONAL", "geometry": {"location": {"lat": 39.8931413, "lng": -105.0831242}, "viewport": {"northeast": {"lat": 39.89447212989272, "lng": -105.0817741201073}, "southwest": {"lat": 39.89177247010728, "lng": -105.0844737798927}}}, "icon": "https://maps.gstatic.com/mapfiles/place_api/icons/v1/png_71/generic_business-71.png", "icon_background_color": "#7B9EB0", "icon_mask_base_uri": "https://maps.gstatic.com/mapfiles/place_api/icons/v2/generic_pinlet", "name": "Westminster Brewing Co.", "opening_hours": {"open_now": false}, "photos": [{"height": 2988, "html_attributions": ["<a href=\"https://maps.google.com/maps/contrib/101347911764016237115\">Chris Fellure</a>"], "photo_reference": "AcJnMuH2HiIfQcM-dk9ZnSQqvJXiGVfUkbJJbXnJ4eG-2XmVwoOno43Cs5qES1ivQCFR51glwxdiJHQcBSQ_BhN9zHFrx8NaN0siiU7JkbaO7l9FBipV7-X4tgseBQ1aLJil0wJMyYyZL9xqJvYuVloIbphjNIP-yYxKDDKOPfLtsPov7JVT", "width": 5312}], "place_id": "ChIJI5UDvNOLa4cRLzG2FGc3mks", "plus_code": {"compound_code": "VWV8+7Q Westminster, Colorado", "global_code": "85FPVWV8+7Q"}, "rating": 4.6, "reference": "ChIJI5UDvNOLa4cRLzG2FGc3mks", "scope": "GOOGLE", "types": ["food", "point_of_interest", "establishment"], "user_ratings_total": 189, "vicinity": "7655 W 108th Ave #600, Westminster"}, {"business_status": "OPERATIONAL", "geometry": {"location": {"lat": 39.9084192, "lng": -105.0751496}, "viewport": {"northeast": {"lat": 39.90966077989273, "lng": -105.0735039701073}, "southwest": {"lat": 39.90696112010728, "lng": -105.0762036298927}}}, "icon": "https://maps.gstatic.com/mapfiles/place_api/icons/v1/png_71/generic_business-71.png", "icon_background_color": "#7B9EB0", "icon_mask_base_uri": "https://maps.gstatic.com/mapfiles/place_api/icons/v2/generic_pinlet", "name": "Rails End Beer Company", "opening_hours": {"open_now": false}, "photos": [{"height": 3024, "html_attributions": ["<a href=\"https://maps.google.com/maps/contrib/108839309146514758654\">Dan Calahan</a>"], "photo_reference": "AcJnMuE102rlsOimlMF0pLnP2Qi9Sv7ow8uu3TC5fl8UiwQ6kzXMZwYC6JO8mssRU1PLKRWaeR5egZer4t72AnDqjjdg7l9Sj1BTj3ibO0jgmSm_-uFNPVqKuDN9lsHmMoaNEOB1f-uDxSYyCk70XLHqLxstFMjUG1ep2KWaZUSTOPYS2FVv", "width": 4032}], "place_id": "ChIJ5dzrbUqKa4cRYvMAzgoopGo", "plus_code": {"compound_code": "WW5F+9W Broomfield, Colorado", "global_code": "85FPWW5F+9W"}, "rating": 4.7, "reference": "ChIJ5dzrbUqKa4cRYvMAzgoopGo", "scope": "GOOGLE", "types": ["food", "point_of_interest", "establishment"], "user_ratings_total": 429, "vicinity": "11625 Reed Ct B, Broomfield"}, {"business_status": "OPERATIONAL", "geometry": {"location": {"lat": 39.9983741, "lng": -105.0879499}, "viewport": {"northeast": {"lat": 39.99972982989273, "lng": -105.0866049701073}, "southwest": {"lat": 39.99703017010729, "lng": -105.0893046298927}}}, "icon": "https://maps.gstatic.com/mapfiles/place_api/icons/v1/png_71/generic_business-71.png", "icon_background_color": "#7B9EB0", "icon_mask_base_uri": "https://maps.gstatic.com/mapfiles/place_api/icons/v2/generic_pinlet", "name": "Odd13 Brewing", "opening_hours": {"open_now": false}, "photos": [{"height": 1080, "html_attributions": ["<a href=\"https://maps.google.com/maps/contrib/113039501142801683047\">Odd13 Brewing</a>"], "photo_reference": "AcJnMuFCeopjxWEh4VjDzBrjFbhKwB5RtQ4e0nkr1fmIYjFrgt1WKEP7JN5Iy7BqCR_NmwIenpAC4EHNqT5270Fa7h7sZuppSejE1nhGX-LIrGmxrk4YV9mJv9Gy_IuQDm2LIYKnsZ8fQaolTss_-D29IqqB9AedxUvo8TqTARWs4JVbo1rp", "width": 1080}], "place_id": "ChIJ_R0qA_v0a4cRJi1lkwuinH8", "plus_code": {"compound_code": "XWX6+9V Lafayette, Colorado", "global_code": "85FPXWX6+9V"}, "rating": 4.7, "reference": "ChIJ_R0qA_v0a4cRJi1lkwuinH8", "scope": "GOOGLE", "types": ["bar", "food", "point_of_interest", "establishment"], "user_ratings_total": 473, "vicinity": "301 E Simpson St, Lafayette"}, {"business_status": "OPERATIONAL", "geometry": {"location": {"lat": 39.9064406, "lng": -105.0986793}, "viewport": {"northeast": {"lat": 39.90773292989272, "lng": -105.0973504701073}, "southwest": {"lat": 39.90503327010728, "lng": -105.1000501298927}}}, "icon": "https://maps.gstatic.com/mapfiles/place_api/icons/v1/png_71/generic_business-71.png", "icon_background_color": "#7B9EB0", "icon_mask_base_uri": "https://maps.gstatic.com/mapfiles/place_api/icons/v2/generic_pinlet", "name": "4 Noses Brewing Company", "opening_hours": {"open_now": false}, "photos": [{"height": 1080, "html_attributions": ["<a href=\"https://maps.google.com/maps/contrib/113414177368784656862\">4 Noses Brewing Company (Brewery)</a>"], "photo_reference": "AcJnMuF2nqFMzDeNekRmuPzUkHknZiopRXehsYM3i8LSztHJwxIZ0G6Mx2Z5qs85W3MYzR6VriUBePdpl1NHMRnxopIN48fi5wqL7XcAsl6y3DvtDfUNOJbamg1m698A-JFdxO3X9UW7_Ydmu5bfniV6Qqy6jj4xBqbWgNZ0e_-JaC8TukvH", "width": 1350}], "place_id": "ChIJ__RsGr-La4cRxZjhPokFgdA", "plus_code": {"compound_code": "WW42+HG Broomfield, Colorado", "global_code": "85FPWW42+HG"}, "rating": 4.6, "reference": "ChIJ__RsGr-La4cRxZjhPokFgdA", "scope": "GOOGLE", "types": ["bar", "food", "point_of_interest", "establishment"], "user_ratings_total": 1005, "vicinity": "8855 W 116th Cir #4, Broomfield"}, {"business_status": "OPERATIONAL", "geometry": {"location": {"lat": 39.91332240000001, "lng": -105.0558566}, "viewport": {"northeast": {"lat": 39.91493737989272, "lng": -105.0545270201073}, "southwest": {"lat": 39.91223772010728, "lng": -105.0572266798927}}}, "icon": "https://maps.gstatic.com/mapfiles/place_api/icons/v1/png_71/generic_business-71.png", "icon_background_color": "#7B9EB0", "icon_mask_base_uri": "https://maps.gstatic.com/mapfiles/place_api/icons/v2/generic_pinlet", "name": "Wonderland Brewing Co", "opening_hours": {"open_now": false}, "photos": [{"height": 720, "html_attributions": ["<a href=\"https://maps.google.com/maps/contrib/111588123059401272296\">A Google User</a>"], "photo_reference": "AcJnMuFJ4ShGYDvikPZzai6TyjMWw-qLdbfnZHw3pLnMD7l3InObo0QcntBWoLTqwp2MpdsoJr4cEh5z5UdWZsgxxuNrKhkRZ1XDSy54GI7hiqEMj79RCcNqlZ8jRbPlUjoF7-kZp-AiF5v0yv_aFjy_326cGq8MfsLa5phcbdt0bJGKcMWS", "width": 960}], "place_id": "ChIJudOw10GKa4cRdP7c0XxRiK8", "plus_code": {"compound_code": "WW7V+8M Broomfield, Colorado", "global_code": "85FPWW7V+8M"}, "rating": 4.4, "reference": "ChIJudOw10GKa4cRdP7c0XxRiK8", "scope": "GOOGLE", "types": ["food", "point_of_interest", "establishment"], "user_ratings_total": 702, "vicinity": "5450 W 120th Ave, Broomfield"}, {"business_status": "OPERATIONAL", "geometry": {"location": {"lat": 39.9305226, "lng": -105.0149717}, "viewport": {"northeast": {"lat": 39.93184837989272, "lng": -105.0136989701073}, "southwest": {"lat": 39.92914872010728, "lng": -105.0163986298927}}}, "icon": "https://maps.gstatic.com/mapfiles/place_api/icons/v1/png_71/bar-71.png", "icon_background_color": "#FF9E67", "icon_mask_base_uri": "https://maps.gstatic.com/mapfiles/place_api/icons/v2/bar_pinlet", "name": "Frolic Brewing Company", "opening_hours": {"open_now": false}, "photos": [{"height": 3024, "html_attributions": ["<a href=\"https://maps.google.com/maps/contrib/110246435722193481109\">Robert Sheehan</a>"], "photo_reference": "AcJnMuGl8rw6l8RsEia3TyTuyTfeJGem5whQ4yWCzs9Jv8VW0qY29PXbnsVC9vo3MzkXrsfsGAfEYJo8GpvFTgV0frGjFg6kTELPnZAu6qfCr7-jMp74e6fCu-sWxeFz0A9GjwF95PL5EERBMXhHMQJVVDeVNrlvTcloS2D0G0ShFrAIvS_t", "width": 4032}], "place_id": "ChIJnQNkRJl1bIcRY1pRxD3UKE8", "plus_code": {"compound_code": "WXJP+62 Westminster, Colorado", "global_code": "85FPWXJP+62"}, "price_level": 2, "rating": 4.5, "reference": "ChIJnQNkRJl1bIcRY1pRxD3UKE8", "scope": "GOOGLE", "types": ["cafe", "bar", "restaurant", "food", "point_of_interest", "store", "establishment"], "user_ratings_total": 766, "vicinity": "12910 Zuni St #1300, Westminster"}, {"business_status": "OPERATIONAL", "geometry": {"location": {"lat": 39.9760858, "lng": -105.1286397}, "viewport": {"northeast": {"lat": 39.97751372989272, "lng": -105.1270034201073}, "southwest": {"lat": 39.97481407010728, "lng": -105.1297030798927}}}, "icon": "https://maps.gstatic.com/mapfiles/place_api/icons/v1/png_71/generic_business-71.png", "icon_background_color": "#7B9EB0", "icon_mask_base_uri": "https://maps.gstatic.com/mapfiles/place_api/icons/v2/generic_pinlet", "name": "Gravity Brewing", "opening_hours": {"open_now": false}, "photos": [{"height": 1152, "html_attributions": ["<a href=\"https://maps.google.com/maps/contrib/100315904862713106682\">Gravity Brewing</a>"], "photo_reference": "AcJnMuGYM6BL0NOclJ7oGtMNqNryWj3Gz2gwNnkp-LTH-xyWJTHmtB2nAR-hbLidoRpeVmPBjp3mShnQMReZjwXDNLWcT2rLoDBUxfFVjZsv1s33b-04cZAvW9FxiuPXGbYSLi03we9dq767SNVTrUDbgIdcQoYSgN_51KHyGLflZnQ1vpJ8", "width": 2048}], "place_id": "ChIJCcbjKl_za4cR01mcaweoUGo", "plus_code": {"compound_code": "XVGC+CG Louisville, Colorado", "global_code": "85FPXVGC+CG"}, "rating": 4.5, "reference": "ChIJCcbjKl_za4cR01mcaweoUGo", "scope": "GOOGLE", "types": ["food", "point_of_interest", "establishment"], "user_ratings_total": 300, "vicinity": "1150 Pine St, Louisville"}, {"business_status": "OPERATIONAL", "geometry": {"location": {"lat": 39.9760296, "lng": -105.1318311}, "viewport": {"northeast": {"lat": 39.97731307989272, "lng": -105.1305355701073}, "southwest": {"lat": 39.97461342010727, "lng": -105.1332352298927}}}, "icon": "https://maps.gstatic.com/mapfiles/place_api/icons/v1/png_71/generic_business-71.png", "icon_background_color": "#7B9EB0", "icon_mask_base_uri": "https://maps.gstatic.com/mapfiles/place_api/icons/v2/generic_pinlet", "name": "Crystal Springs Brewing Co. - Downtown Taproom", "opening_hours": {"open_now": false}, "photos": [{"height": 3024, "html_attributions": ["<a href=\"https://maps.google.com/maps/contrib/117269823296841485045\">117269823296841485045</a>"], "photo_reference": "AcJnMuFzIeI8E3suOgoQBOJcSAZJAjsXtTlV1QFrGfiG-YniYl3xCfgsLowr9_zedHfH2SNWfIMX2Nl3MmF91pb9qUiy0yg9N88GRugomiVWzrVYTzJwwdlEQ_WK9CnwAek37Yq687cFDzztd6_c3Jy8cgg4NY2a7XCjiWW7O_q4WjTKY3iC", "width": 4032}], "place_id": "ChIJy-lxA1zza4cRQ_F_TTs_eMo", "plus_code": {"compound_code": "XVG9+C7 Louisville, Colorado", "global_code": "85FPXVG9+C7"}, "rating": 4.9, "reference": "ChIJy-lxA1zza4cRQ_F_TTs_eMo", "scope": "GOOGLE", "types": ["bar", "restaurant", "food", "point_of_interest", "establishment"], "user_ratings_total": 226, "vicinity": "604 Main St, Louisville"}, {"business_status": "OPERATIONAL", "geometry": {"location": {"lat": 39.9999449, "lng": -105.0991832}, "viewport": {"northeast": {"lat": 40.00131812989272, "lng": -105.0978270201073}, "southwest": {"lat": 39.99861847010727, "lng": -105.1005266798927}}}, "icon": "https://maps.gstatic.com/mapfiles/place_api/icons/v1/png_71/generic_business-71.png", "icon_background_color": "#7B9EB0", "icon_mask_base_uri": "https://maps.gstatic.com/mapfiles/place_api/icons/v2/generic_pinlet", "name": "Cellar West Brewery", "opening_hours": {"open_now": false}, "photos": [{"height": 3024, "html_attributions": ["<a href=\"https://maps.google.com/maps/contrib/118433183916755884441\">Shivendra Agrawal</a>"], "photo_reference": "AcJnMuGxLGDGpM-GIx7FfurWasFUuL3bEUjPIGiLw_vrJhTg67YjRD2pq1iEjrqHCKRKQ70gLEfmGL3SxuBlFGQY6H_gxnBBFLtwrEIHq8n39zgrYBCphQDbjHAK1DUVkXdyaWK6C979xpjpTw9lZzYtGDpzQF8n4K8HmFFHkq-9QWQ7_7vI", "width": 4032}], "place_id": "ChIJ0X0EdB7va4cR1t8NzNLXgaE", "plus_code": {"compound_code": "XWX2+X8 Lafayette, Colorado", "global_code": "85FPXWX2+X8"}, "rating": 4.9, "reference": "ChIJ0X0EdB7va4cR1t8NzNLXgaE", "scope": "GOOGLE", "types": ["food", "point_of_interest", "establishment"], "user_ratings_total": 172, "vicinity": "778-B W Baseline Rd, Lafayette"}, {"business_status": "OPERATIONAL", "geometry": {"location": {"lat": 39.9782417, "lng": -105.1319614}, "viewport": {"northeast": {"lat": 39.97958522989272, "lng": -105.1307102201073}, "southwest": {"lat": 39.97688557010728, "lng": -105.1334098798927}}}, "icon": "https://maps.gstatic.com/mapfiles/place_api/icons/v1/png_71/bar-71.png", "icon_background_color": "#FF9E67", "icon_mask_base_uri": "https://maps.gstatic.com/mapfiles/place_api/icons/v2/bar_pinlet", "name": "12Degree Brewing", "opening_hours": {"open_now": false}, "photos": [{"height": 1536, "html_attributions": ["<a href=\"https://maps.google.com/maps/contrib/104026593923167841400\">Dami Son</a>"], "photo_reference": "AcJnMuFUBPqgBBSupL1h23lfnDVJy3BT0opZN1wd0h2Zoed-qaZk6N9FOuQieq2Ii9Obaucma79PIpoVoT6V8Qh9ZvvsjToMBBGpHy9cB4kRVOOjjdGBYW6WzahXbegY9zTg1SjvH5Eia0hCuMh2aKeIkIZ9f92y7VFLgI7v7cgi9JdJ9C5O", "width": 2731}], "place_id": "ChIJV5-01V3za4cRHErorPGilxs", "plus_code": {"compound_code": "XVH9+76 Louisville, Colorado", "global_code": "85FPXVH9+76"}, "price_level": 2, "rating": 4.7, "reference": "ChIJV5-01V3za4cRHErorPGilxs", "scope": "GOOGLE", "types": ["bar", "restaurant", "food", "point_of_interest", "establishment"], "user_ratings_total": 318, "vicinity": "820 Main St, Louisville"}, {"business_status": "OPERATIONAL", "geometry": {"location": {"lat": 39.9997589, "lng": -105.1035344}, "viewport": {"northeast": {"lat": 40.00115027989271, "lng": -105.1021904201073}, "southwest": {"lat": 39.99845062010727, "lng": -105.1048900798927}}}, "icon": "https://maps.gstatic.com/mapfiles/place_api/icons/v1/png_71/generic_business-71.png", "icon_background_color": "#7B9EB0", "icon_mask_base_uri": "https://maps.gstatic.com/mapfiles/place_api/icons/v2/generic_pinlet", "name": "Liquid Mechanics Brewing Company", "opening_hours": {"open_now": false}, "photos": [{"height": 3024, "html_attributions": ["<a href=\"https://maps.google.com/maps/contrib/108839309146514758654\">Dan Calahan</a>"], "photo_reference": "AcJnMuHNmGyUFzF1bd1FP9q4lH2QkBI_a2CibpWEoHv9aK4afvdXSiGsFrHpXsUd6C_GNtFiQ1bps7sCVmwrb_cCWDP_dDasN0LlADiyqAsPoOEExCmnBLhg-qF9Vx8aMhlKbGGN9M-AO8PYMNhYhf_kjhfY-3KXXkZBYnYDlQfYNAeudjYm", "width": 4032}], "place_id": "ChIJaVkaXIv0a4cRY0wrDeNceBg", "plus_code": {"compound_code": "XVXW+VH Lafayette, Colorado", "global_code": "85FPXVXW+VH"}, "rating": 4.8, "reference": "ChIJaVkaXIv0a4cRY0wrDeNceBg", "scope": "GOOGLE", "types": ["food", "point_of_interest", "establishment"], "user_ratings_total": 431, "vicinity": "297 US-287 #100, Lafayette"}, {"business_status": "OPERATIONAL", "geometry": {"location": {"lat": 39.9814779, "lng": -105.0639154}, "viewport": {"northeast": {"lat": 39.98276057989272, "lng": -105.0622304201073}, "southwest": {"lat": 39.98006092010728, "lng": -105.0649300798927}}}, "icon": "https://maps.gstatic.com/mapfiles/place_api/icons/v1/png_71/generic_business-71.png", "icon_background_color": "#7B9EB0", "icon_mask_base_uri": "https://maps.gstatic.com/mapfiles/place_api/icons/v2/generic_pinlet", "name": "Howdy Beer", "photos": [{"height": 1365, "html_attributions": ["<a href=\"https://maps.google.com/maps/contrib/108029062599547219187\">A Google User</a>"], "photo_reference": "AcJnMuFwSovTG9uSgFUXc46wvGni9rDXZ7ZxR9-2C6wZFX6owTeK0PBsO5dLIOhpb97nZzc4cNbTQvtv9dVKkL5XG-F5ZbcdXKq8f5IdVgWcuctprNJjOkvPx3sHrXRHNi7ix8Tycq-zkgX3-_VsPqpgpx7yAjsgHy12byR0oZBxgFipKyfX", "width": 2048}], "place_id": "ChIJsQeOzKAkWyERx2qaXFDkav8", "plus_code": {"compound_code": "XWJP+HC Lafayette, Colorado", "global_code": "85FPXWJP+HC"}, "rating": 5, "reference": "ChIJsQeOzKAkWyERx2qaXFDkav8", "scope": "GOOGLE", "types": ["food", "point_of_interest", "establishment"], "user_ratings_total": 2, "vicinity": "1380 Horizon Ave Unit B, Lafayette"}, {"business_status": "OPERATIONAL", "geometry": {"location": {"lat": 39.9617206, "lng": -105.1671371}, "viewport": {"northeast": {"lat": 39.96303897989272, "lng": -105.1656737701073}, "southwest": {"lat": 39.96033932010727, "lng": -105.1683734298927}}}, "icon": "https://maps.gstatic.com/mapfiles/place_api/icons/v1/png_71/generic_business-71.png", "icon_background_color": "#7B9EB0", "icon_mask_base_uri": "https://maps.gstatic.com/mapfiles/place_api/icons/v2/generic_pinlet", "name": "Mother Tucker Brewery Louisville", "opening_hours": {"open_now": false}, "photos": [{"height": 1333, "html_attributions": ["<a href=\"https://maps.google.com/maps/contrib/104488046344103016316\">A Google User</a>"], "photo_reference": "AcJnMuFoF0kQo6oQMGPceD2ghYa_KlxHyxnnZL10JBCXDKhBIvSnh_Bt0xOZpzT208wcy04MInLq8UM3fPHYqAtnqDINzlXiv6CUdgZ4BaOywwN5GSZ_i64AQYcE1AAgDXzlOMBphHOfLwtkhgmRVW0mKgJ0gK4DJp9Ba1pZ3KrmMDwmBkFg", "width": 2000}], "place_id": "ChIJ9YgPnz_za4cR_X-2I6S3hdI", "plus_code": {"compound_code": "XR6M+M5 Louisville, Colorado", "global_code": "85FPXR6M+M5"}, "rating": 4.6, "reference": "ChIJ9YgPnz_za4cR_X-2I6S3hdI", "scope": "GOOGLE", "types": ["food", "point_of_interest", "establishment"], "user_ratings_total": 84, "vicinity": "1132 W Dillon Rd #4, Louisville"}, {"business_status": "OPERATIONAL", "geometry": {"location": {"lat": 39.9307107, "lng": -105.1353412}, "viewport": {"northeast": {"lat": 39.93193827989273, "lng": -105.1343435201073}, "southwest": {"lat": 39.92923862010728, "lng": -105.1370431798927}}}, "icon": "https://maps.gstatic.com/mapfiles/place_api/icons/v1/png_71/bar-71.png", "icon_background_color": "#FF9E67", "icon_mask_base_uri": "https://maps.gstatic.com/mapfiles/place_api/icons/v2/bar_pinlet", "name": "Gordon Biersch Brewery Restaurant", "opening_hours": {"open_now": false}, "photos": [{"height": 2448, "html_attributions": ["<a href=\"https://maps.google.com/maps/contrib/100248606162990286512\">P Haar</a>"], "photo_reference": "AcJnMuGi0qmR3SJMx_WK_Eahh7DonFnzNXU-51HCmBvzFtLdKqR1F5h6QqBUN_d5S2u1VEOTvHRu07vrUyEEfx9ZVJcaN6ZF3xgv1k8x3O_-Oz2nsnc7atKfurK-dPN8rPo3qK9w0Y7N0RnAqsShWCc0_r3xPht8-VW8Xr8ewMfYJSXrKTTJ", "width": 3264}], "place_id": "ChIJvZii0JqMa4cR8zIYt_8BpZk", "plus_code": {"compound_code": "WVJ7+7V Broomfield, Colorado", "global_code": "85FPWVJ7+7V"}, "price_level": 2, "rating": 3.9, "reference": "ChIJvZii0JqMa4cR8zIYt_8BpZk", "scope": "GOOGLE", "types": ["bar", "restaurant", "food", "point_of_interest", "establishment"], "user_ratings_total": 520, "vicinity": "1 W Flatiron Crossing Dr, Broomfield"}, {"business_status": "OPERATIONAL", "geometry": {"location": {"lat": 39.8986696, "lng": -105.0535737}, "viewport": {"northeast": {"lat": 39.90006512989272, "lng": -105.0521746201073}, "southwest": {"lat": 39.89736547010727, "lng": -105.0548742798927}}}, "icon": "https://maps.gstatic.com/mapfiles/place_api/icons/v1/png_71/bar-71.png", "icon_background_color": "#FF9E67", "icon_mask_base_uri": "https://maps.gstatic.com/mapfiles/place_api/icons/v2/bar_pinlet", "name": "Axe Throwing at Twenty Brew TapHouse", "opening_hours": {"open_now": false}, "photos": [{"height": 2988, "html_attributions": ["<a href=\"https://maps.google.com/maps/contrib/116838728181425677030\">David Lewis</a>"], "photo_reference": "AcJnMuEPEZh7mJYz8_z52Gtu67x7vTB9hk4oau1-u_W7l6RdOCBLaLoykrre-ZJ2Cq1GSA0tD0gjKi-tBhN9sGYLU_SfjMzLlc0lH017KwzAZkVzMvVcs2yzDCODo68JBdnje1ZNF0S60T3nOlffpOJ9wAI43atAn8WU-rzWrRFdkJWXVQ4Z", "width": 5312}], "place_id": "ChIJxY8dRRiKa4cRBEyuTg4JeMQ", "plus_code": {"compound_code": "VWXW+FH Westminster, Colorado", "global_code": "85FPVWXW+FH"}, "price_level": 2, "rating": 4.5, "reference": "ChIJxY8dRRiKa4cRBEyuTg4JeMQ", "scope": "GOOGLE", "types": ["bar", "point_of_interest", "establishment"], "user_ratings_total": 328, "vicinity": "11187 Sheridan Boulevard #10, Westminster"}, {"business_status": "OPERATIONAL", "geometry": {"location": {"lat": 39.8881691, "lng": -105.074265}, "viewport": {"northeast": {"lat": 39.88962102989272, "lng": -105.0728209201073}, "southwest": {"lat": 39.88692137010727, "lng": -105.0755205798927}}}, "icon": "https://maps.gstatic.com/mapfiles/place_api/icons/v1/png_71/restaurant-71.png", "icon_background_color": "#FF9E67", "icon_mask_base_uri": "https://maps.gstatic.com/mapfiles/place_api/icons/v2/restaurant_pinlet", "name": "BJ's Restaurant & Brewhouse", "opening_hours": {"open_now": false}, "photos": [{"height": 1080, "html_attributions": ["<a href=\"https://maps.google.com/maps/contrib/117501999288193810988\">Pamela Olesen</a>"], "photo_reference": "AcJnMuG_r2o8hiWZ7ZjkzDViE0whNI8Z7lh6yzft3otFJ3rZzT9FwvhbW0LX-k3mD0A6CLexEn2w0_mHqjR6JpXwhBb_0L6cY5BTzSpTRTTw8m1rTle8gOVt_EC_jD-MYv10re0Wti9-Z_xBt814KLbUh523xfGtaClEBJrIjQdcLjnNbV0L", "width": 1920}], "place_id": "ChIJw-pTDiqKa4cR1zqIeanpr9s", "plus_code": {"compound_code": "VWQG+77 Westminster, Colorado", "global_code": "85FPVWQG+77"}, "price_level": 2, "rating": 4.2, "reference": "ChIJw-pTDiqKa4cR1zqIeanpr9s", "scope": "GOOGLE", "types": ["restaurant", "bar", "food", "point_of_interest", "establishment"], "user_ratings_total": 1754, "vicinity": "10446 Town Center Dr, Westminster"}, {"business_status": "OPERATIONAL", "geometry": {"location": {"lat": 39.95618, "lng": -105.1637305}, "viewport": {"northeast": {"lat": 39.95744527989272, "lng": -105.1623606201073}, "southwest": {"lat": 39.95474562010727, "lng": -105.1650602798927}}}, "icon": "https://maps.gstatic.com/mapfiles/place_api/icons/v1/png_71/bar-71.png", "icon_background_color": "#FF9E67", "icon_mask_base_uri": "https://maps.gstatic.com/mapfiles/place_api/icons/v2/bar_pinlet", "name": "Bambei Brewing", "opening_hours": {"open_now": false}, "photos": [{"height": 2268, "html_attributions": ["<a href=\"https://maps.google.com/maps/contrib/102630563319123381746\">A Google User</a>"], "photo_reference": "AcJnMuFDFLYzwDU-RZhci_7IA76v8yv1KWaru1lUSb7ZuaeQXxGiLE3-vH0fdb9DjFMvaslH4YJWn9nbOzukCHZ18G683Lez8Omij38ER3agRebTQEKQ3N8DDzPUfcYfsCNxsqu-cfrRa5VZwSIIa_GrU4ZQBVnohMTnqrhopR31mqXgNHqf", "width": 4032}], "place_id": "ChIJ5RcXEp-Na4cRhWktsObeq2E", "plus_code": {"compound_code": "XR4P+FG Superior, Colorado", "global_code": "85FPXR4P+FG"}, "price_level": 2, "rating": 4.6, "reference": "ChIJ5RcXEp-Na4cRhWktsObeq2E", "scope": "GOOGLE", "types": ["bar", "restaurant", "food", "point_of_interest", "establishment"], "user_ratings_total": 96, "vicinity": "100 Superior Plaza Way Suite 102, Superior"}, {"business_status": "OPERATIONAL", "geometry": {"location": {"lat": 39.9805583, "lng": -105.1289796}, "viewport": {"northeast": {"lat": 39.98191492989272, "lng": -105.1276298201073}, "southwest": {"lat": 39.97921527010728, "lng": -105.1303294798927}}}, "icon": "https://maps.gstatic.com/mapfiles/place_api/icons/v1/png_71/restaurant-71.png", "icon_background_color": "#FF9E67", "icon_mask_base_uri": "https://maps.gstatic.com/mapfiles/place_api/icons/v2/restaurant_pinlet", "name": "Rocky Mountain Tap & Garden", "opening_hours": {"open_now": false}, "photos": [{"height": 3648, "html_attributions": ["<a href=\"https://maps.google.com/maps/contrib/106170396451045293329\">A Google User</a>"], "photo_reference": "AcJnMuH0sm5eGBzDc6RukmpVMQvbn4GuCXB9-CRflHX3OdFUIlnbZ0jSyJR3t8Kde9WRuJ3hIiTgYJWAyhEmqygINSec-Rb4yXcq9FknpugsPsy-nclCO027vbHL0LFuAII0bdaYacVFOYn5QyzIqZ6QZ_2EpcgmfKx32l3_4uhipB5QK0ge", "width": 5472}], "place_id": "ChIJlfUG-HTza4cRFcm40VIrIIA", "plus_code": {"compound_code": "XVJC+6C Louisville, Colorado", "global_code": "85FPXVJC+6C"}, "price_level": 2, "rating": 4.4, "reference": "ChIJlfUG-HTza4cRFcm40VIrIIA", "scope": "GOOGLE", "types": ["restaurant", "bar", "food", "point_of_interest", "establishment"], "user_ratings_total": 298, "vicinity": "1071 Courtesy Rd, Louisville"}, {"business_status": "OPERATIONAL", "geometry": {"location": {"lat": 39.965351, "lng": -105.1168878}, "viewport": {"northeast": {"lat": 39.96657097989272, "lng": -105.1154947201073}, "southwest": {"lat": 39.96387132010728, "lng": -105.1181943798927}}}, "icon": "https://maps.gstatic.com/mapfiles/place_api/icons/v1/png_71/restaurant-71.png", "icon_background_color": "#FF9E67", "icon_mask_base_uri": "https://maps.gstatic.com/mapfiles/place_api/icons/v2/restaurant_pinlet", "name": "Redgarden Restaurant", "opening_hours": {"open_now": false}, "photos": [{"height": 960, "html_attributions": ["<a href=\"https://maps.google.com/maps/contrib/106549836277196620485\">A Google User</a>"], "photo_reference": "AcJnMuFxVU6iHauCV-C-ljX7VETmf6PKN88dQLo3hV2qlHwrfxgzErO5rkS9X_qV8pc3taJ1BWWfBlHItoeP7JvDO7QOZU21_6T6VXMOOL8Hh2lMzsumS7bZp0FEWmG31sLzMoMc3DJlyaN3RNAMX93Cuda6-VoptwCSEWasW-e1Zkp-tnVf", "width": 960}], "place_id": "ChIJBQsyexT1a4cRiU0Afd6X2hM", "plus_code": {"compound_code": "XV8M+56 Louisville, Colorado", "global_code": "85FPXV8M+56"}, "price_level": 2, "rating": 4.6, "reference": "ChIJBQsyexT1a4cRiU0Afd6X2hM", "scope": "GOOGLE", "types": ["restaurant", "bar", "food", "point_of_interest", "establishment"], "user_ratings_total": 300, "vicinity": "1700 Dogwood St, Louisville"}], "status": "OK"}]