[{"html_attributions": [], "results": [{"business_status": "OPERATIONAL", "geometry": {"location": {"lat": 39.718539, "lng": -104.9923036}, "viewport": {"northeast": {"lat": 39.71987292989272, "lng": -104.9908947201073}, "southwest": {"lat": 39.71717327010727, "lng": -104.9935943798927}}}, "icon": "https://maps.gstatic.com/mapfiles/place_api/icons/v1/png_71/generic_business-71.png", "icon_background_color": "#7B9EB0", "icon_mask_base_uri": "https://maps.gstatic.com/mapfiles/place_api/icons/v2/generic_pinlet", "name": "Novel Strand Brewing Company", "opening_hours": {"open_now": false}, "photos": [{"height": 2454, "html_attributions": ["<a href=\"https://maps.google.com/maps/contrib/117261118426787668367\">Mike Schadauer</a>"], "photo_reference": "AcJnMuE2H-wXgdvjSPsHk52U142JuRzg85cdUVax91bJoL2B6Z5peygKMRBareiEO9IBobsaVkF03nlAFvrHjTdBHds5PKdO2NFLBHh8BJFKBDT8Bs64WLeRwjT5vP_hYCELFKTnpG8q3Rn0_cOIwoRuRsLMHh0TrvbORGNPM9H4Ar-uLpjH", "width": 4000}], "place_id": "ChIJlx7gGo5_bIcReG4TsAYCAqU", "plus_code": {"compound_code": "P295+C3 Denver, Colorado", "global_code": "85FQP295+C3"}, "rating": 4.6, "reference": "ChIJlx7gGo5_bIcReG4TsAYCAqU", "scope": "GOOGLE", "types": ["point_of_interest", "food", "establishment"], "user_ratings_total": 191, "vicinity": "305 W 1st Ave, Denver"}, {"business_status": "OPERATIONAL", "geometry": {"location": {"lat": 39.7703552, "lng": -105.0031591}, "viewport": {"northeast": {"lat": 39.77170287989272, "lng": -105.0017124701073}, "southwest": {"lat": 39.76900322010728, "lng": -105.0044121298927}}}, "icon": "https://maps.gstatic.com/mapfiles/place_api/icons/v1/png_71/generic_business-71.png", "icon_background_color": "#7B9EB0", "icon_mask_base_uri": "https://maps.gstatic.com/mapfiles/place_api/icons/v2/generic_pinlet", "name": "Diebolt Brewing Company", "opening_hours": {"open_now": false}, "photos": [{"height": 2988, "html_attributions": ["<a href=\"https://maps.google.com/maps/contrib/107631533710653198125\">Jason Y</a>"], "photo_reference": "AcJnMuFQD5-6hshgWCug4yQ-Mfkh4p91vcT4sADzxMHMFL_eMNhlwtBw-MHpEG917hKwcuIh3li70DD4haAuQZnm8bTxOmp6NzCpd2B1RZWIIa_dZ-RUF5nZQaer5EAjI0juOufBr4vP4mjcszUrCDxHHa3PT5p-dYEpMXT_94zSC2f5WUWJ", "width": 5312}], "place_id": "ChIJ2dZYX_F4bIcRhKc-iGqkX7w", "plus_code": {"compound_code": "QXCW+4P Denver, Colorado", "global_code": "85FPQXCW+4P"}, "rating": 4.7, "reference": "ChIJ2dZYX_F4bIcRhKc-iGqkX7w", "scope": "GOOGLE", "types": ["point_of_interest", "food", "establishment"], "user_ratings_total": 236, "vicinity": "3855 Mariposa St, Denver"}, {"business_status": "OPERATIONAL", "geometry": {"location": {"lat": 39.7527785, "lng": -104.8777564}, "viewport": {"northeast": {"lat": 39.75393682989272, "lng": -104.8763844701073}, "southwest": {"lat": 39.75123717010727, "lng": -104.8790841298927}}}, "icon": "https://maps.gstatic.com/mapfiles/place_api/icons/v1/png_71/generic_business-71.png", "icon_background_color": "#7B9EB0", "icon_mask_base_uri": "https://maps.gstatic.com/mapfiles/place_api/icons/v2/generic_pinlet", "name": "Cheluna Brewing Company", "opening_hours": {"open_now": false}, "photos": [{"height": 1068, "html_attributions": ["<a href=\"https://maps.google.com/maps/contrib/117254124507886598711\">From the Hip Photo</a>"], "photo_reference": "AcJnMuE4Fw8x9409DiLd0H5fN_M958tq3p-zPnrbvsTxGwaXRoLnmSLt5d5wWfSzB-VQWi7YAGsc3ScjxySBTCjVN_hPwmxfgQFDMedH-fKTafrobQsDNxyQ9WntebTJpqNJUDKS7utpCaipMAyiXTcg-wTCSj_BOZbe8XVDkREcyfFxAlD8", "width": 1600}], "place_id": "ChIJG7TLgmJ7bIcRSvhLBk3Lwnc", "plus_code": {"compound_code": "Q43C+4V Aurora, Colorado", "global_code": "85FQQ43C+4V"}, "price_level": 1, "rating": 4.7, "reference": "ChIJG7TLgmJ7bIcRSvhLBk3Lwnc", "scope": "GOOGLE", "types": ["point_of_interest", "food", "establishment"], "user_ratings_total": 385, "vicinity": "2501 Dallas St #148, Aurora"}, {"business_status": "OPERATIONAL", "geometry": {"location": {"lat": 39.7430903, "lng": -104.9682077}, "viewport": {"northeast": {"lat": 39.74451227989272, "lng": -104.9668606701073}, "southwest": {"lat": 39.74181262010728, "lng": -104.9695603298927}}}, "icon": "https://maps.gstatic.com/mapfiles/place_api/icons/v1/png_71/generic_business-71.png", "icon_background_color": "#7B9EB0", "icon_mask_base_uri": "https://maps.gstatic.com/mapfiles/place_api/icons/v2/generic_pinlet", "name": "Reverence Brewing Company", "opening_hours": {"open_now": false}, "photos": [{"height": 3456, "html_attributions": ["<a href=\"https://maps.google.com/maps/contrib/117533602470480275814\">A Google User</a>"], "photo_reference": "AcJnMuHymz9m-kxcdoqA2-O6ZjXzLsIVZh6WSYbTDrf6p6rBTCOLDMITg5DzlP6BA7_4RSVp6G9JDqySY1CkDGP33k4atKr4inskNgQlrefilFSoZv5fmUBXKzH2Qg_ghMdjDFTY7SjxvT989kGiAJpTy-yfOFspG04LJ2Ln2MoOQtNrYKWf", "width": 5184}], "place_id": "ChIJeeLPfYt5bIcRAZujWNtxSyw", "plus_code": {"compound_code": "P2VJ+6P Denver, Colorado", "global_code": "85FQP2VJ+6P"}, "rating": 5, "reference": "ChIJeeLPfYt5bIcRAZujWNtxSyw", "scope": "GOOGLE", "types": ["bar", "restaurant", "point_of_interest", "food", "establishment"], "user_ratings_total": 191, "vicinity": "1604 E 17th Ave, Denver"}, {"business_status": "OPERATIONAL", "geometry": {"location": {"lat": 39.68545599999999, "lng": -104.9873531}, "viewport": {"northeast": {"lat": 39.68680137989272, "lng": -104.9860701201073}, "southwest": {"lat": 39.68410172010727, "lng": -104.9887697798927}}}, "icon": "https://maps.gstatic.com/mapfiles/place_api/icons/v1/png_71/generic_business-71.png", "icon_background_color": "#7B9EB0", "icon_mask_base_uri": "https://maps.gstatic.com/mapfiles/place_api/icons/v2/generic_pinlet", "name": "Grandma's House", "opening_hours": {"open_now": false}, "photos": [{"height": 3024, "html_attributions": ["<a href=\"https://maps.google.com/maps/contrib/113126050371752965102\">Tamu Harvey</a>"], "photo_reference": "AcJnMuFumXbGYVJqpIVW_oPhk3euuJxqKuvN0mjjM6FHwit8DKEzyGnKpSmegVZ_Vdul_jPkpTdA6AzmO0-ubnF3hDdGnw18E_aoP7mMpIP9-VSJK5MfYJRTiAKW89pPBU2dP465rp_jIENC3FD2QVUDPkWLQDkWNqhbADM-DphW0GF8H025", "width": 4032}], "place_id": "ChIJ68jq4LJ_bIcR-DHPb2eI5Zc", "plus_code": {"compound_code": "M2P7+53 Denver, Colorado", "global_code": "85FQM2P7+53"}, "price_level": 1, "rating": 4.6, "reference": "ChIJ68jq4LJ_bIcR-DHPb2eI5Zc", "scope": "GOOGLE", "types": ["point_of_interest", "food", "establishment"], "user_ratings_total": 460, "vicinity": "1710 S Broadway, Denver"}, {"business_status": "OPERATIONAL", "geometry": {"location": {"lat": 39.7699018, "lng": -104.9578476}, "viewport": {"northeast": {"lat": 39.77124122989272, "lng": -104.9565905201073}, "southwest": {"lat": 39.76854157010727, "lng": -104.9592901798927}}}, "icon": "https://maps.gstatic.com/mapfiles/place_api/icons/v1/png_71/generic_business-71.png", "icon_background_color": "#7B9EB0", "icon_mask_base_uri": "https://maps.gstatic.com/mapfiles/place_api/icons/v2/generic_pinlet", "name": "Cohesion Brewing", "opening_hours": {"open_now": false}, "photos": [{"height": 5792, "html_attributions": ["<a href=\"https://maps.google.com/maps/contrib/102481676475221605697\">A Google User</a>"], "photo_reference": "AcJnMuGhLUarl5w30PYr4vE5bGvqp6haqT9SebVWYNwO4DZ_iyHNurDxAUMLH3QoBn3Qt7rqournsbf0M39Gl2CNx_vnyhn81sG8VYdSPUIdRHfw8MUxp_KUjaNbbzQCULMhsnDHydznk1k4DGRJXGRal_Qoy-HYbFjBI48cq6MonEFAUIKY", "width": 8688}], "place_id": "ChIJMXdBCW95bIcRw2NKb5Hm88U", "plus_code": {"compound_code": "Q29R+XV Denver, Colorado", "global_code": "85FQQ29R+XV"}, "rating": 4.9, "reference": "ChIJMXdBCW95bIcRw2NKb5Hm88U", "scope": "GOOGLE", "types": ["point_of_interest", "food", "establishment"], "user_ratings_total": 200, "vicinity": "3851 Steele St Unit 1388, Denver"}, {"business_status": "OPERATIONAL", "geometry": {"location": {"lat": 39.780817, "lng": -105.0050073}, "viewport": {"northeast": {"lat": 39.78216737989272, "lng": -105.0037318201073}, "southwest": {"lat": 39.77946772010728, "lng": -105.0064314798927}}}, "icon": "https://maps.gstatic.com/mapfiles/place_api/icons/v1/png_71/generic_business-71.png", "icon_background_color": "#7B9EB0", "icon_mask_base_uri": "https://maps.gstatic.com/mapfiles/place_api/icons/v2/generic_pinlet", "name": "Crooked Stave Denver Taproom", "opening_hours": {"open_now": false}, "photos": [{"height": 3024, "html_attributions": ["<a href=\"https://maps.google.com/maps/contrib/104352111206328531959\">A Google User</a>"], "photo_reference": "AcJnMuGllQME3t4suLq_UEzzTQS87Xha7uX34M05ttZiympWho8cWs8E4U6wFkQayGXFUn8hIwxe_lwkm4UNO2tIysm8KBipaBWaDVzvFOKCoFOHZPSbK0Ri_DdxTummGEJCGkXwUlIumFUFZhZtxD9Ujzm8VzxNce6c10TjdaPTtiiXTCJ1", "width": 4032}], "place_id": "ChIJmUNBmF54bIcRLpe3t4pPxSE", "plus_code": {"compound_code": "QXJV+8X Denver, Colorado", "global_code": "85FPQXJV+8X"}, "rating": 4.8, "reference": "ChIJmUNBmF54bIcRLpe3t4pPxSE", "scope": "GOOGLE", "types": ["point_of_interest", "food", "establishment"], "user_ratings_total": 140, "vicinity": "1441 W 46th Ave Unit 19, Denver"}, {"business_status": "OPERATIONAL", "geometry": {"location": {"lat": 39.7868916, "lng": -105.0344055}, "viewport": {"northeast": {"lat": 39.78824127989272, "lng": -105.0330961701073}, "southwest": {"lat": 39.78554162010727, "lng": -105.0357958298927}}}, "icon": "https://maps.gstatic.com/mapfiles/place_api/icons/v1/png_71/generic_business-71.png", "icon_background_color": "#7B9EB0", "icon_mask_base_uri": "https://maps.gstatic.com/mapfiles/place_api/icons/v2/generic_pinlet", "name": "Goldspot Brewing Company", "opening_hours": {"open_now": false}, "photos": [{"height": 3024, "html_attributions": ["<a href=\"https://maps.google.com/maps/contrib/106190490258896143785\">Robert Hutchins</a>"], "photo_reference": "AcJnMuHpamUe_8jLIW55AV6Dr4FBhjjpQkJMX2SA1o35_5w-FypRndfLqiwEy_Fx5yEK4e9XPnaZX_p8t6zTRyIuG03SOQsj3y7UQChZ9a5NeqWcWOdbfucAhKdQgb4DjGfAVLwJSRRtVau2ubEWlbQu1qUqJC8a6JgIMoUX9DVQNnZAvSDg", "width": 4032}], "place_id": "ChIJy9JbjomHa4cRzRcOcSnrcBs", "plus_code": {"compound_code": "QXP8+Q7 Denver, Colorado", "global_code": "85FPQXP8+Q7"}, "price_level": 1, "rating": 4.8, "reference": "ChIJy9JbjomHa4cRzRcOcSnrcBs", "scope": "GOOGLE", "types": ["point_of_interest", "food", "establishment"], "user_ratings_total": 246, "vicinity": "4970 Lowell Blvd, Denver"}, {"business_status": "OPERATIONAL", "geometry": {"location": {"lat": 39.7393909, "lng": -105.0171522}, "viewport": {"northeast": {"lat": 39.74088532989272, "lng": -105.0157958701073}, "southwest": {"lat": 39.73818567010728, "lng": -105.0184955298927}}}, "icon": "https://maps.gstatic.com/mapfiles/place_api/icons/v1/png_71/generic_business-71.png", "icon_background_color": "#7B9EB0", "icon_mask_base_uri": "https://maps.gstatic.com/mapfiles/place_api/icons/v2/generic_pinlet", "name": "Raices Brewing Company", "opening_hours": {"open_now": false}, "photos": [{"height": 2268, "html_attributions": ["<a href=\"https://maps.google.com/maps/contrib/113188704431199450801\">RJWhetstone</a>"], "photo_reference": "AcJnMuEO1fzTIa48gkvkXy9moDKeoQFdcyVBoljThpluPUU5hCfEfWb-Cci9LmZJasx1MZ-SklUvzGpbl-b2YCzKhgOze1vZs43sQH7DFQWQT3wunhh1D77SJPZh4nqr0w3BaIXa6dM-_59Me885wocGEhjnmrsRi5GZim1S4K7qyEGJIDmU", "width": 4032}], "place_id": "ChIJYSPd1rN4bIcR1xTT74Tu3zw", "plus_code": {"compound_code": "PXQM+Q4 Denver, Colorado", "global_code": "85FPPXQM+Q4"}, "rating": 4.7, "reference": "ChIJYSPd1rN4bIcR1xTT74Tu3zw", "scope": "GOOGLE", "types": ["bar", "restaurant", "point_of_interest", "food", "establishment"], "user_ratings_total": 496, "vicinity": "2060 W Colfax Ave, Denver"}, {"business_status": "OPERATIONAL", "geometry": {"location": {"lat": 39.7403173, "lng": -104.8746368}, "viewport": {"northeast": {"lat": 39.74169382989272, "lng": -104.8732863701073}, "southwest": {"lat": 39.73899417010728, "lng": -104.8759860298927}}}, "icon": "https://maps.gstatic.com/mapfiles/place_api/icons/v1/png_71/generic_business-71.png", "icon_background_color": "#7B9EB0", "icon_mask_base_uri": "https://maps.gstatic.com/mapfiles/place_api/icons/v2/generic_pinlet", "name": "Lady Justice Brewing Company", "opening_hours": {"open_now": false}, "photos": [{"height": 3024, "html_attributions": ["<a href=\"https://maps.google.com/maps/contrib/108536238757184817885\">Sharon</a>"], "photo_reference": "AcJnMuGkDtWM0T138jgohfHTDYzrhpUtza4WZbOzP0x6QqC5_Dqk8ps5n4BBOb91fxNnxishEIPld6md5Ei3-h1wjw49i1xh5c2KKngmJnMpXCuxF_pnwMlr8-fQxS-sXVcUrcqC3zmioi8427Di00ffQG83x_UeAaQsINIBUT_esRW89cZM", "width": 4032}], "place_id": "ChIJq6r6paOHa4cRjTvwJnJTL6M", "plus_code": {"compound_code": "P4RG+54 Aurora, Colorado", "global_code": "85FQP4RG+54"}, "rating": 5, "reference": "ChIJq6r6paOHa4cRjTvwJnJTL6M", "scope": "GOOGLE", "types": ["point_of_interest", "food", "establishment"], "user_ratings_total": 153, "vicinity": "9735 E Colfax Ave, Aurora"}, {"business_status": "OPERATIONAL", "geometry": {"location": {"lat": 39.76733979999999, "lng": -104.9771061}, "viewport": {"northeast": {"lat": 39.76866037989272, "lng": -104.9758673701073}, "southwest": {"lat": 39.76596072010728, "lng": -104.9785670298927}}}, "icon": "https://maps.gstatic.com/mapfiles/place_api/icons/v1/png_71/generic_business-71.png", "icon_background_color": "#7B9EB0", "icon_mask_base_uri": "https://maps.gstatic.com/mapfiles/place_api/icons/v2/generic_pinlet", "name": "River North Brewery - Blake Street Taproom", "opening_hours": {"open_now": false}, "photos": [{"height": 3024, "html_attributions": ["<a href=\"https://maps.google.com/maps/contrib/117182807092844401710\">Chris Maine</a>"], "photo_reference": "AcJnMuHhWQljWwwxnEBucI9y_kr-aVLMKidyTQcDciyAcjIVLpPikdaocRu-qkKvdCN2Bvj9GQAIDx65paupseRYYa17azJr6Rezkj33IOffN--53-D-soO231Q25lM1cXdhncRXm3CVCcO696J9Ll-zXVIo3JzVCSrQNgEwdIwvpwAX_XM4", "width": 4032}], "place_id": "ChIJ-7H-hOB4bIcRK66PVgt580c", "plus_code": {"compound_code": "Q28F+W5 Denver, Colorado", "global_code": "85FQQ28F+W5"}, "price_level": 2, "rating": 4.7, "reference": "ChIJ-7H-hOB4bIcRK66PVgt580c", "scope": "GOOGLE", "types": ["liquor_store", "bar", "store", "point_of_interest", "food", "establishment"], "user_ratings_total": 128, "vicinity": "3400 Blake St, Denver"}, {"business_status": "OPERATIONAL", "geometry": {"location": {"lat": 39.7615077, "lng": -104.9810761}, "viewport": {"northeast": {"lat": 39.76293142989272, "lng": -104.9798564701073}, "southwest": {"lat": 39.76023177010727, "lng": -104.9825561298927}}}, "icon": "https://maps.gstatic.com/mapfiles/place_api/icons/v1/png_71/generic_business-71.png", "icon_background_color": "#7B9EB0", "icon_mask_base_uri": "https://maps.gstatic.com/mapfiles/place_api/icons/v2/generic_pinlet", "name": "Ratio Beerworks", "opening_hours": {"open_now": false}, "photos": [{"height": 4032, "html_attributions": ["<a href=\"https://maps.google.com/maps/contrib/102076523821294188846\">jason miles</a>"], "photo_reference": "AcJnMuF-Krn0m9sJTnTuiRXIQxP8f__czzQPnbcCBiYuo-Rz7c8DCB7aBG3HWfpMaTXawm_SMUqwlGY_WYHvmADMlw4ggnqHh0pIh8rx7IuzGsBM7aU3X1o2YNhfZt0imGGMeCxUkeqOeN9vSkm5VcCJgZZS6Rc-smxi_7T0NOOjhrieWP36", "width": 3024}], "place_id": "ChIJgZ4HIR95bIcRVav2shAUzp8", "plus_code": {"compound_code": "Q269+JH Denver, Colorado", "global_code": "85FQQ269+JH"}, "price_level": 1, "rating": 4.6, "reference": "ChIJgZ4HIR95bIcRVav2shAUzp8", "scope": "GOOGLE", "types": ["point_of_interest", "food", "establishment"], "user_ratings_total": 784, "vicinity": "2920 Larimer St, Denver"}, {"business_status": "OPERATIONAL", "geometry": {"location": {"lat": 39.776061, "lng": -105.043509}, "viewport": {"northeast": {"lat": 39.77743267989272, "lng": -105.0423952201073}, "southwest": {"lat": 39.77473302010728, "lng": -105.0450948798927}}}, "icon": "https://maps.gstatic.com/mapfiles/place_api/icons/v1/png_71/generic_business-71.png", "icon_background_color": "#7B9EB0", "icon_mask_base_uri": "https://maps.gstatic.com/mapfiles/place_api/icons/v2/generic_pinlet", "name": "Berkeley Alley Beer Co - Enter in \"The Alley\"", "opening_hours": {"open_now": false}, "photos": [{"height": 3456, "html_attributions": ["<a href=\"https://maps.google.com/maps/contrib/102292644098945357297\">De Steeg Brewing - Entrance in &quot;The Alley&quot;</a>"], "photo_reference": "AcJnMuEiPYRW9dMLiLpRMgiPfWE1d3yQar0nS0j45r90XSUSw93dO-y1MyqQ6EQVIqdMSZHx7WEmEnlDrPkchr05wP_f7fsDdd07ckjkMG8aRXFC9Y7135wMWtnKBA6QVJLzq4_tV01380iBBGTrXjkeWq0RDaS5lWAlEpxHBMVtvXmXZEGl", "width": 5184}], "place_id": "ChIJcxvcqYSHa4cRrXeOrBXD_oE", "plus_code": {"compound_code": "QXG4+CH Denver, Colorado", "global_code": "85FPQXG4+CH"}, "rating": 4.8, "reference": "ChIJcxvcqYSHa4cRrXeOrBXD_oE", "scope": "GOOGLE", "types": ["bar", "point_of_interest", "food", "establishment"], "user_ratings_total": 200, "vicinity": "4342 Tennyson St, Denver"}, {"business_status": "OPERATIONAL", "geometry": {"location": {"lat": 39.7621843, "lng": -104.9809324}, "viewport": {"northeast": {"lat": 39.76344932989272, "lng": -104.9795172701073}, "southwest": {"lat": 39.76074967010727, "lng": -104.9822169298927}}}, "icon": "https://maps.gstatic.com/mapfiles/place_api/icons/v1/png_71/generic_business-71.png", "icon_background_color": "#7B9EB0", "icon_mask_base_uri": "https://maps.gstatic.com/mapfiles/place_api/icons/v2/generic_pinlet", "name": "Odell Brewing Five Points Brewhouse", "opening_hours": {"open_now": false}, "photos": [{"height": 3024, "html_attributions": ["<a href=\"https://maps.google.com/maps/contrib/111002661827897985378\">ctedesco6</a>"], "photo_reference": "AcJnMuHwzO9jkq00v-kb3OI32DXLp3kAhe1itajwxPvGlGvdtSZEko23wj3lu_uJSmElZIpqxZKNVUD-LcouIJo_K03FjzxePDCgqcXFplFxyl0enXys43JmnYhb_lFVj_ILC7ahwIjGcK6oHIAfOXpYQoIrF_WnMuVvS7Ept73Gx5lojyN2", "width": 4032}], "place_id": "ChIJW7kEcvB5bIcRl5ji_aVrEIk", "plus_code": {"compound_code": "Q269+VJ Denver, Colorado", "global_code": "85FQQ269+VJ"}, "rating": 4.7, "reference": "ChIJW7kEcvB5bIcRl5ji_aVrEIk", "scope": "GOOGLE", "types": ["bar", "point_of_interest", "food", "establishment"], "user_ratings_total": 395, "vicinity": "2945 Larimer St, Denver"}, {"business_status": "OPERATIONAL", "geometry": {"location": {"lat": 39.7214056, "lng": -104.9870932}, "viewport": {"northeast": {"lat": 39.72275552989272, "lng": -104.9857666201073}, "southwest": {"lat": 39.72005587010727, "lng": -104.9884662798927}}}, "icon": "https://maps.gstatic.com/mapfiles/place_api/icons/v1/png_71/generic_business-71.png", "icon_background_color": "#7B9EB0", "icon_mask_base_uri": "https://maps.gstatic.com/mapfiles/place_api/icons/v2/generic_pinlet", "name": "Baere Brewing Company", "opening_hours": {"open_now": false}, "photos": [{"height": 3000, "html_attributions": ["<a href=\"https://maps.google.com/maps/contrib/112264691695218987716\">Justin Thresher</a>"], "photo_reference": "AcJnMuEAx7H0Ursbwhau7wTfiVmcNroCAaJZfpdxrGJTxPfScMK8pNQkhiOq4JnbK3dc8n9n8_-mCmfPdq1WfbmprVDy2M4l5uvRcE9gjhZxo8qJMvT-hvwnKHjIppaAz73gNOlb9dhuugi_UvjfMeF8t_1CTZDY7bKSG7P-gV6W2AZWT0fI", "width": 4000}], "place_id": "ChIJ85q57CB_bIcRBu10hSSJlvo", "plus_code": {"compound_code": "P2C7+H5 Denver, Colorado", "global_code": "85FQP2C7+H5"}, "rating": 4.7, "reference": "ChIJ85q57CB_bIcRBu10hSSJlvo", "scope": "GOOGLE", "types": ["point_of_interest", "food", "establishment"], "user_ratings_total": 321, "vicinity": "320 Broadway Unit E, Denver"}, {"business_status": "OPERATIONAL", "geometry": {"location": {"lat": 39.7475593, "lng": -104.9948415}, "viewport": {"northeast": {"lat": 39.74879357989272, "lng": -104.9933884201073}, "southwest": {"lat": 39.74609392010727, "lng": -104.9960880798927}}}, "icon": "https://maps.gstatic.com/mapfiles/place_api/icons/v1/png_71/bar-71.png", "icon_background_color": "#FF9E67", "icon_mask_base_uri": "https://maps.gstatic.com/mapfiles/place_api/icons/v2/bar_pinlet", "name": "Rock Bottom Restaurant & Brewery", "opening_hours": {"open_now": false}, "photos": [{"height": 4032, "html_attributions": ["<a href=\"https://maps.google.com/maps/contrib/115453017615795826684\">A Google User</a>"], "photo_reference": "AcJnMuFQsJo1mW7Pf0ZbcfxX0VitJX1cWqik2jDo1AaslIcajN-NDSzuJKCaS9Vk7flhenkk1ard4EMRPimXZ7DAr2V_7QJHktSf50Sab63Mt6PCqLODU2iNnWc3RGSWc6FzBBgiWwPn4OWv0leAd0mCMooprYDrF30k_QwqJX3-JS5Fg-xN", "width": 3024}], "place_id": "ChIJHY5jhNp4bIcR8ij0UT5PKRY", "plus_code": {"compound_code": "P2X4+23 Denver, Colorado", "global_code": "85FQP2X4+23"}, "price_level": 2, "rating": 3.8, "reference": "ChIJHY5jhNp4bIcR8ij0UT5PKRY", "scope": "GOOGLE", "types": ["bar", "restaurant", "point_of_interest", "food", "establishment"], "user_ratings_total": 1205, "vicinity": "1001 16th St Mall A-100, Denver"}, {"business_status": "OPERATIONAL", "geometry": {"location": {"lat": 39.7580389, "lng": -105.0075509}, "viewport": {"northeast": {"lat": 39.75935872989272, "lng": -105.0061020701073}, "southwest": {"lat": 39.75665907010727, "lng": -105.0088017298927}}}, "icon": "https://maps.gstatic.com/mapfiles/place_api/icons/v1/png_71/generic_business-71.png", "icon_background_color": "#7B9EB0", "icon_mask_base_uri": "https://maps.gstatic.com/mapfiles/place_api/icons/v2/generic_pinlet", "name": "Cerveceria Colorado", "opening_hours": {"open_now": false}, "photos": [{"height": 2268, "html_attributions": ["<a href=\"https://maps.google.com/maps/contrib/106892400538853132620\">Teri Fogel</a>"], "photo_reference": "AcJnMuGi_9m8Yz5GxQVdeSnGn8Dm7t5whGOKtTTbgc4EYJSNmUJG0TM5OHW3UY7212_njIdYplI8Ajp2soOitZ3xhpQAlmW7tDlRyYXZT6OHJzpoo_yv7ztlODHX1ZEBuu7zQSeCA27VoU1jOmVsvQwLEL-1B2cUOIdFCYUKAYEPGvQOrkho", "width": 4032}], "place_id": "ChIJC5wBR1p5bIcR-avQoruwkxY", "plus_code": {"compound_code": "QX5R+6X Denver, Colorado", "global_code": "85FPQX5R+6X"}, "rating": 4.7, "reference": "ChIJC5wBR1p5bIcR-avQoruwkxY", "scope": "GOOGLE", "types": ["point_of_interest", "food", "establishment"], "user_ratings_total": 175, "vicinity": "1635 Platte St, Denver"}, {"business_status": "OPERATIONAL", "geometry": {"location": {"lat": 39.7030429, "lng": -104.9324773}, "viewport": {"northeast": {"lat": 39.70447242989272, "lng": -104.9311454701073}, "southwest": {"lat": 39.70177277010728, "lng": -104.9338451298927}}}, "icon": "https://maps.gstatic.com/mapfiles/place_api/icons/v1/png_71/generic_business-71.png", "icon_background_color": "#7B9EB0", "icon_mask_base_uri": "https://maps.gstatic.com/mapfiles/place_api/icons/v2/generic_pinlet", "name": "Bull & Bush Brewery", "opening_hours": {"open_now": false}, "photos": [{"height": 1623, "html_attributions": ["<a href=\"https://maps.google.com/maps/contrib/106258203219779286917\">Bull &amp; Bush</a>"], "photo_reference": "AcJnMuHGF7zzYdsmN_iVX3TLCg1jiH0gA_kKyVKtHUJM_d390Z8wZRyUHhpDnr52QuMDT7qHeiPDDzkvnFBUJJIDFl1NvU3tF3QcHsVf0TX58-HG1cw2sjLaV3TvH7KyL_K8k1J-Nrd5VnSxr5nKyCNn9mywxhBXPiBAcM6BVBTuR9e0Z3Fr", "width": 2400}], "place_id": "ChIJy0fuetN9bIcRfTivsjBIIPw", "plus_code": {"compound_code": "P339+62 Denver, Colorado", "global_code": "85FQP339+62"}, "price_level": 2, "rating": 4.6, "reference": "ChIJy0fuetN9bIcRfTivsjBIIPw", "scope": "GOOGLE", "types": ["bar", "restaurant", "point_of_interest", "food", "establishment"], "user_ratings_total": 1354, "vicinity": "4700 Cherry Creek S Dr, Denver"}, {"business_status": "OPERATIONAL", "geometry": {"location": {"lat": 39.7704575, "lng": -104.9792939}, "viewport": {"northeast": {"lat": 39.77177122989273, "lng": -104.9778486201073}, "southwest": {"lat": 39.76907157010728, "lng": -104.9805482798927}}}, "icon": "https://maps.gstatic.com/mapfiles/place_api/icons/v1/png_71/bar-71.png", "icon_background_color": "#FF9E67", "icon_mask_base_uri": "https://maps.gstatic.com/mapfiles/place_api/icons/v2/bar_pinlet", "name": "Great Divide Barrel Bar", "opening_hours": {"open_now": false}, "photos": [{"height": 3036, "html_attributions": ["<a href=\"https://maps.google.com/maps/contrib/114992863095016072186\">Neil Weitzel</a>"], "photo_reference": "AcJnMuE58HP6EShKash1EDcSexDSj6uk4qCNsiavkSfJ1T-s4hgsgrr85L6q_EcJ4NXkmNcJKE1ULYcvtPMs3Ungc8dp2tRfqp-blVb8HB5es19Prwi6vQNfIoGjcrgtKvcns5MvUavS3kzOm05XGrpYTPgtfWkW_f8bRcMPvT1BC_hVfDk6", "width": 4048}], "place_id": "ChIJoZUuqAR5bIcRTb1P4dV43aY", "plus_code": {"compound_code": "Q2CC+57 Denver, Colorado", "global_code": "85FQQ2CC+57"}, "price_level": 2, "rating": 4.5, "reference": "ChIJoZUuqAR5bIcRTb1P4dV43aY", "scope": "GOOGLE", "types": ["bar", "point_of_interest", "food", "establishment"], "user_ratings_total": 323, "vicinity": "1812 35th St, Denver"}, {"business_status": "OPERATIONAL", "geometry": {"location": {"lat": 39.7582145, "lng": -104.9284439}, "viewport": {"northeast": {"lat": 39.75956372989273, "lng": -104.9270495701073}, "southwest": {"lat": 39.75686407010728, "lng": -104.9297492298927}}}, "icon": "https://maps.gstatic.com/mapfiles/place_api/icons/v1/png_71/generic_business-71.png", "icon_background_color": "#7B9EB0", "icon_mask_base_uri": "https://maps.gstatic.com/mapfiles/place_api/icons/v2/generic_pinlet", "name": "Long Table Brewhouse", "opening_hours": {"open_now": false}, "photos": [{"height": 3024, "html_attributions": ["<a href=\"https://maps.google.com/maps/contrib/100910524933750857769\">Avery Beaton</a>"], "photo_reference": "AcJnMuHqxX-c3pDI_ZktxvJS3Cl7fXLrZwp5-ufhuwUXWYFqRWBDe4H5we2b5mf_H_1doDu_61yyAtmwGD44C6V_Uw-oWzi-hCuGPJpuEQ0TmSvnP_a-xYolK2N1MfPYdi59AjWduhyHKI7Qi4WtWlP9EtnmoBt6Im1REYQ_okHJic5C4pdb", "width": 4032}], "place_id": "ChIJVVWRdOV7bIcR05RrimL2PMs", "plus_code": {"compound_code": "Q35C+7H Denver, Colorado", "global_code": "85FQQ35C+7H"}, "rating": 4.6, "reference": "ChIJVVWRdOV7bIcR05RrimL2PMs", "scope": "GOOGLE", "types": ["point_of_interest", "food", "establishment"], "user_ratings_total": 242, "vicinity": "2895 Fairfax St, Denver"}], "status": "OK"}]