[{"results": [{"fsq_id": "510d77cde4b0ef5188d73e82", "categories": [{"id": 13003, "name": "Bar", "short_name": "Bar", "plural_name": "Bars", "icon": {"prefix": "https://ss3.4sqi.net/img/categories_v2/nightlife/pub_", "suffix": ".png"}}, {"id": 13029, "name": "Brewery", "short_name": "Brewery", "plural_name": "Breweries", "icon": {"prefix": "https://ss3.4sqi.net/img/categories_v2/food/brewery_", "suffix": ".png"}}, {"id": 13064, "name": "Pizzeria", "short_name": "Pizza", "plural_name": "Pizzerias", "icon": {"prefix": "https://ss3.4sqi.net/img/categories_v2/food/pizza_", "suffix": ".png"}}], "chains": [], "closed_bucket": "VeryLikelyOpen", "distance": 10430, "geocodes": {"main": {"latitude": 39.756591, "longitude": -104.773022}, "roof": {"latitude": 39.756591, "longitude": -104.773022}}, "link": "/v3/places/510d77cde4b0ef5188d73e82", "location": {"address": "2801 Tower Rd", "census_block": "080010083092032", "country": "US", "cross_street": "E 28th Ave", "dma": "Denver", "formatted_address": "2801 Tower Rd (E 28th Ave), Aurora, CO 80011", "locality": "Aurora", "postcode": "80011", "region": "CO"}, "name": "Dry Dock Brewing Co. - North Dock", "related_places": {}, "timezone": "America/Denver"}, {"fsq_id": "49cd502bf964a520dd591fe3", "categories": [{"id": 13003, "name": "Bar", "short_name": "Bar", "plural_name": "Bars", "icon": {"prefix": "https://ss3.4sqi.net/img/categories_v2/nightlife/pub_", "suffix": ".png"}}, {"id": 13029, "name": "Brewery", "short_name": "Brewery", "plural_name": "Breweries", "icon": {"prefix": "https://ss3.4sqi.net/img/categories_v2/food/brewery_", "suffix": ".png"}}, {"id": 13068, "name": "American Restaurant", "short_name": "American", "plural_name": "American Restaurants", "icon": {"prefix": "https://ss3.4sqi.net/img/categories_v2/food/default_", "suffix": ".png"}}], "chains": [], "closed_bucket": "LikelyOpen", "distance": 17274, "geocodes": {"main": {"latitude": 39.652613, "longitude": -104.81217}, "roof": {"latitude": 39.652613, "longitude": -104.81217}}, "link": "/v3/places/49cd502bf964a520dd591fe3", "location": {"address": "15120 E Hampden Ave", "census_block": "080050838001003", "country": "US", "cross_street": "Chambers Rd", "dma": "Denver", "formatted_address": "15120 E Hampden Ave (Chambers Rd), Aurora, CO 80014", "locality": "Aurora", "postcode": "80014", "region": "CO"}, "name": "Dry Dock Brewing Co.", "related_places": {}, "timezone": "America/Denver"}, {"fsq_id": "527e84dc498e05d392436ac9", "categories": [{"id": 13003, "name": "Bar", "short_name": "Bar", "plural_name": "Bars", "icon": {"prefix": "https://ss3.4sqi.net/img/categories_v2/nightlife/pub_", "suffix": ".png"}}, {"id": 13029, "name": "Brewery", "short_name": "Brewery", "plural_name": "Breweries", "icon": {"prefix": "https://ss3.4sqi.net/img/categories_v2/food/brewery_", "suffix": ".png"}}, {"id": 13065, "name": "Restaurant", "short_name": "Restaurant", "plural_name": "Restaurants", "icon": {"prefix": "https://ss3.4sqi.net/img/categories_v2/food/default_", "suffix": ".png"}}], "chains": [], "closed_bucket": "LikelyOpen", "distance": 21869, "geocodes": {"main": {"latitude": 39.769628, "longitude": -104.905929}, "roof": {"latitude": 39.769628, "longitude": -104.905929}}, "link": "/v3/places/527e84dc498e05d392436ac9", "location": {"address": "7045 E 38th Ave", "census_block": "080310041021034", "country": "US", "cross_street": "", "dma": "Denver", "formatted_address": "7045 E 38th Ave, Denver, CO 80207", "locality": "Denver", "postcode": "80207", "region": "CO"}, "name": "Station 26 Brewing Co.", "related_places": {}, "timezone": "America/Denver"}, {"fsq_id": "54321299498ecc238fc0e162", "categories": [{"id": 13029, "name": "Brewery", "short_name": "Brewery", "plural_name": "Breweries", "icon": {"prefix": "https://ss3.4sqi.net/img/categories_v2/food/brewery_", "suffix": ".png"}}, {"id": 13050, "name": "Distillery", "short_name": "Distillery", "plural_name": "Distilleries", "icon": {"prefix": "https://ss3.4sqi.net/img/categories_v2/food/brewery_", "suffix": ".png"}}, {"id": 13065, "name": "Restaurant", "short_name": "Restaurant", "plural_name": "Restaurants", "icon": {"prefix": "https://ss3.4sqi.net/img/categories_v2/food/default_", "suffix": ".png"}}], "chains": [], "closed_bucket": "VeryLikelyOpen", "distance": 18680, "geocodes": {"main": {"latitude": 39.792871, "longitude": -104.862079}, "roof": {"latitude": 39.792871, "longitude": -104.862079}}, "link": "/v3/places/54321299498ecc238fc0e162", "location": {"address": "5285 Joliet St", "census_block": "080319801001004", "country": "US", "cross_street": "51st Avenue", "dma": "Denver", "formatted_address": "5285 Joliet St (51st Avenue), Denver, CO 80239", "locality": "Denver", "postcode": "80239", "region": "CO"}, "name": "Leopold Bros", "related_places": {}, "timezone": "America/Denver"}, {"fsq_id": "51ca46f28bbd484e162209fe", "categories": [{"id": 13029, "name": "Brewery", "short_name": "Brewery", "plural_name": "Breweries", "icon": {"prefix": "https://ss3.4sqi.net/img/categories_v2/food/brewery_", "suffix": ".png"}}, {"id": 13065, "name": "Restaurant", "short_name": "Restaurant", "plural_name": "Restaurants", "icon": {"prefix": "https://ss3.4sqi.net/img/categories_v2/food/default_", "suffix": ".png"}}], "chains": [], "closed_bucket": "VeryLikelyOpen", "distance": 15916, "geocodes": {"main": {"latitude": 39.748284, "longitude": -104.838019}, "roof": {"latitude": 39.748284, "longitude": -104.838019}}, "link": "/v3/places/51ca46f28bbd484e162209fe", "location": {"address": "2101 N Ursula St", "address_extended": "Unit 10", "census_block": "080010081001001", "country": "US", "cross_street": "E Montview Blvd", "dma": "Denver", "formatted_address": "2101 N Ursula St (E Montview Blvd), Aurora, CO 80045", "locality": "Aurora", "postcode": "80045", "region": "CO"}, "name": "Ursula Brewery", "related_places": {}, "timezone": "America/Denver"}, {"fsq_id": "4d8e0d4e788c5481493b2ffd", "categories": [{"id": 13003, "name": "Bar", "short_name": "Bar", "plural_name": "Bars", "icon": {"prefix": "https://ss3.4sqi.net/img/categories_v2/nightlife/pub_", "suffix": ".png"}}, {"id": 13029, "name": "Brewery", "short_name": "Brewery", "plural_name": "Breweries", "icon": {"prefix": "https://ss3.4sqi.net/img/categories_v2/food/brewery_", "suffix": ".png"}}, {"id": 13065, "name": "Restaurant", "short_name": "Restaurant", "plural_name": "Restaurants", "icon": {"prefix": "https://ss3.4sqi.net/img/categories_v2/food/default_", "suffix": ".png"}}], "chains": [], "closed_bucket": "LikelyOpen", "distance": 21375, "geocodes": {"main": {"latitude": 39.692683, "longitude": -104.891327}, "roof": {"latitude": 39.692683, "longitude": -104.891327}}, "link": "/v3/places/4d8e0d4e788c5481493b2ffd", "location": {"address": "1338 S Valentia St", "address_extended": "Ste 100", "census_block": "080050868011008", "country": "US", "cross_street": "", "dma": "Denver", "formatted_address": "1338 S Valentia St, Denver, CO 80247", "locality": "Denver", "postcode": "80247", "region": "CO"}, "name": "Copper Kettle Brewing Company", "related_places": {}, "timezone": "America/Denver"}, {"fsq_id": "5355b537498ededd71adfc3c", "categories": [{"id": 13003, "name": "Bar", "short_name": "Bar", "plural_name": "Bars", "icon": {"prefix": "https://ss3.4sqi.net/img/categories_v2/nightlife/pub_", "suffix": ".png"}}, {"id": 13029, "name": "Brewery", "short_name": "Brewery", "plural_name": "Breweries", "icon": {"prefix": "https://ss3.4sqi.net/img/categories_v2/food/brewery_", "suffix": ".png"}}], "chains": [], "closed_bucket": "LikelyOpen", "distance": 22549, "geocodes": {"main": {"latitude": 39.675733, "longitude": -104.898403}, "roof": {"latitude": 39.675733, "longitude": -104.898403}}, "link": "/v3/places/5355b537498ededd71adfc3c", "location": {"address": "7667 E Iliff Ave", "address_extended": "Ste F", "census_block": "080050872001005", "country": "US", "cross_street": "", "dma": "Denver", "formatted_address": "7667 E Iliff Ave, Denver, CO 80231", "locality": "Denver", "postcode": "80231", "region": "CO"}, "name": "Comrade Brewing Company", "related_places": {}, "timezone": "America/Denver"}, {"fsq_id": "557c84fb498e8dd042b88d97", "categories": [{"id": 13006, "name": "Beer Bar", "short_name": "Beer Bar", "plural_name": "Beer Bars", "icon": {"prefix": "https://ss3.4sqi.net/img/categories_v2/nightlife/pub_", "suffix": ".png"}}, {"id": 13029, "name": "Brewery", "short_name": "Brewery", "plural_name": "Breweries", "icon": {"prefix": "https://ss3.4sqi.net/img/categories_v2/food/brewery_", "suffix": ".png"}}, {"id": 13065, "name": "Restaurant", "short_name": "Restaurant", "plural_name": "Restaurants", "icon": {"prefix": "https://ss3.4sqi.net/img/categories_v2/food/default_", "suffix": ".png"}}], "chains": [], "closed_bucket": "LikelyOpen", "distance": 28085, "geocodes": {"main": {"latitude": 39.770364, "longitude": -104.979275}, "roof": {"latitude": 39.770364, "longitude": -104.979275}}, "link": "/v3/places/557c84fb498e8dd042b88d97", "location": {"address": "1812 35th St", "census_block": "080310016013007", "country": "US", "cross_street": "Brighton Blvd.", "dma": "Denver", "formatted_address": "1812 35th St (Brighton Blvd.), Denver, CO 80216", "locality": "Denver", "postcode": "80216", "region": "CO"}, "name": "Great Divide Barrel Bar", "related_places": {}, "timezone": "America/Denver"}, {"fsq_id": "57b510dc498e8f0b7c13376a", "categories": [{"id": 13006, "name": "Beer Bar", "short_name": "Beer Bar", "plural_name": "Beer Bars", "icon": {"prefix": "https://ss3.4sqi.net/img/categories_v2/nightlife/pub_", "suffix": ".png"}}, {"id": 13007, "name": "Beer Garden", "short_name": "Beer Garden", "plural_name": "Beer Gardens", "icon": {"prefix": "https://ss3.4sqi.net/img/categories_v2/nightlife/beergarden_", "suffix": ".png"}}, {"id": 13029, "name": "Brewery", "short_name": "Brewery", "plural_name": "Breweries", "icon": {"prefix": "https://ss3.4sqi.net/img/categories_v2/food/brewery_", "suffix": ".png"}}], "chains": [], "closed_bucket": "LikelyOpen", "distance": 26923, "geocodes": {"main": {"latitude": 39.584899, "longitude": -104.884812}, "roof": {"latitude": 39.584899, "longitude": -104.884812}}, "link": "/v3/places/57b510dc498e8f0b7c13376a", "location": {"address": "7286 S Yosemite St", "address_extended": "Ste 110", "census_block": "080050067073005", "country": "US", "cross_street": "", "dma": "Denver", "formatted_address": "7286 S Yosemite St, Centennial, CO 80112", "locality": "Centennial", "postcode": "80112", "region": "CO"}, "name": "Resolute Brewing Company", "related_places": {}, "timezone": "America/Denver"}, {"fsq_id": "54c40b11498e782c170c0f8e", "categories": [{"id": 13006, "name": "Beer Bar", "short_name": "Beer Bar", "plural_name": "Beer Bars", "icon": {"prefix": "https://ss3.4sqi.net/img/categories_v2/nightlife/pub_", "suffix": ".png"}}, {"id": 13029, "name": "Brewery", "short_name": "Brewery", "plural_name": "Breweries", "icon": {"prefix": "https://ss3.4sqi.net/img/categories_v2/food/brewery_", "suffix": ".png"}}, {"id": 13065, "name": "Restaurant", "short_name": "Restaurant", "plural_name": "Restaurants", "icon": {"prefix": "https://ss3.4sqi.net/img/categories_v2/food/default_", "suffix": ".png"}}], "chains": [], "closed_bucket": "LikelyOpen", "distance": 28210, "geocodes": {"drop_off": {"latitude": 39.761794, "longitude": -104.981167}, "main": {"latitude": 39.761672, "longitude": -104.981072}, "roof": {"latitude": 39.761672, "longitude": -104.981072}}, "link": "/v3/places/54c40b11498e782c170c0f8e", "location": {"address": "2920 Larimer St", "census_block": "080310016033000", "country": "US", "cross_street": "29th St.", "dma": "Denver", "formatted_address": "2920 Larimer St (29th St.), Denver, CO 80205", "locality": "Denver", "postcode": "80205", "region": "CO"}, "name": "Ratio Beerworks", "related_places": {}, "timezone": "America/Denver"}, {"fsq_id": "4e84eec3d3e34ff8f6f467b0", "categories": [{"id": 13025, "name": "Wine Bar", "short_name": "Wine Bar", "plural_name": "Wine Bars", "icon": {"prefix": "https://ss3.4sqi.net/img/categories_v2/food/winery_", "suffix": ".png"}}, {"id": 13029, "name": "Brewery", "short_name": "Brewery", "plural_name": "Breweries", "icon": {"prefix": "https://ss3.4sqi.net/img/categories_v2/food/brewery_", "suffix": ".png"}}, {"id": 13064, "name": "Pizzeria", "short_name": "Pizza", "plural_name": "Pizzerias", "icon": {"prefix": "https://ss3.4sqi.net/img/categories_v2/food/pizza_", "suffix": ".png"}}], "chains": [], "closed_bucket": "Unsure", "distance": 27554, "geocodes": {"main": {"latitude": 39.769781, "longitude": -104.972907}, "roof": {"latitude": 39.769781, "longitude": -104.972907}}, "link": "/v3/places/4e84eec3d3e34ff8f6f467b0", "location": {"address": "3719 Walnut St", "census_block": "080310016011000", "country": "US", "cross_street": "", "dma": "Denver", "formatted_address": "3719 Walnut St, Denver, CO 80205", "locality": "Denver", "postcode": "80205", "region": "CO"}, "name": "Black Shirt Brewing Co.", "related_places": {}, "timezone": "America/Denver"}, {"fsq_id": "53c1d4ea498e3a62e89b5da4", "categories": [{"id": 13029, "name": "Brewery", "short_name": "Brewery", "plural_name": "Breweries", "icon": {"prefix": "https://ss3.4sqi.net/img/categories_v2/food/brewery_", "suffix": ".png"}}], "chains": [], "closed_bucket": "VeryLikelyOpen", "distance": 28812, "geocodes": {"main": {"latitude": 39.721361, "longitude": -104.98703}, "roof": {"latitude": 39.721361, "longitude": -104.98703}}, "link": "/v3/places/53c1d4ea498e3a62e89b5da4", "location": {"address": "320 N Broadway", "address_extended": "Ste E", "census_block": "080310028025009", "country": "US", "cross_street": "3rd Ave", "dma": "Denver", "formatted_address": "320 N Broadway (3rd Ave), Denver, CO 80203", "locality": "Denver", "postcode": "80203", "region": "CO"}, "name": "Baere Brewing Company", "related_places": {}, "timezone": "America/Denver"}, {"fsq_id": "4b9e9835f964a52062f236e3", "categories": [{"id": 13006, "name": "Beer Bar", "short_name": "Beer Bar", "plural_name": "Beer Bars", "icon": {"prefix": "https://ss3.4sqi.net/img/categories_v2/nightlife/pub_", "suffix": ".png"}}, {"id": 13029, "name": "Brewery", "short_name": "Brewery", "plural_name": "Breweries", "icon": {"prefix": "https://ss3.4sqi.net/img/categories_v2/food/brewery_", "suffix": ".png"}}, {"id": 13065, "name": "Restaurant", "short_name": "Restaurant", "plural_name": "Restaurants", "icon": {"prefix": "https://ss3.4sqi.net/img/categories_v2/food/default_", "suffix": ".png"}}], "chains": [], "closed_bucket": "LikelyOpen", "distance": 28786, "geocodes": {"drop_off": {"latitude": 39.753585, "longitude": -104.988588}, "main": {"latitude": 39.753767, "longitude": -104.988448}, "roof": {"latitude": 39.753767, "longitude": -104.988448}}, "link": "/v3/places/4b9e9835f964a52062f236e3", "location": {"address": "2201 Arapahoe St", "census_block": "080310016035007", "country": "US", "cross_street": "at 22nd St", "dma": "Denver", "formatted_address": "2201 Arapahoe St (at 22nd St), Denver, CO 80205", "locality": "Denver", "postcode": "80205", "region": "CO"}, "name": "Great Divide Brewing Co.", "related_places": {}, "timezone": "America/Denver"}, {"fsq_id": "4b3d1152f964a520398d25e3", "categories": [{"id": 13024, "name": "Whisky Bar", "short_name": "Whisky Bar", "plural_name": "Whisky Bars", "icon": {"prefix": "https://ss3.4sqi.net/img/categories_v2/nightlife/whiskey_", "suffix": ".png"}}, {"id": 13029, "name": "Brewery", "short_name": "Brewery", "plural_name": "Breweries", "icon": {"prefix": "https://ss3.4sqi.net/img/categories_v2/food/brewery_", "suffix": ".png"}}, {"id": 13050, "name": "Distillery", "short_name": "Distillery", "plural_name": "Distilleries", "icon": {"prefix": "https://ss3.4sqi.net/img/categories_v2/food/brewery_", "suffix": ".png"}}], "chains": [], "closed_bucket": "VeryLikelyOpen", "distance": 29908, "geocodes": {"main": {"latitude": 39.712507, "longitude": -104.998638}, "roof": {"latitude": 39.712507, "longitude": -104.998638}}, "link": "/v3/places/4b3d1152f964a520398d25e3", "location": {"address": "200 S Kalamath St", "census_block": "080310021021028", "country": "US", "cross_street": "W Byers Pl", "dma": "Denver", "formatted_address": "200 S Kalamath St (W Byers Pl), Denver, CO 80223", "locality": "Denver", "postcode": "80223", "region": "CO"}, "name": "Stranahan's Colorado Whiskey", "related_places": {}, "timezone": "America/Denver"}, {"fsq_id": "5238b84911d2b81d3be80b22", "categories": [{"id": 13003, "name": "Bar", "short_name": "Bar", "plural_name": "Bars", "icon": {"prefix": "https://ss3.4sqi.net/img/categories_v2/nightlife/pub_", "suffix": ".png"}}, {"id": 13029, "name": "Brewery", "short_name": "Brewery", "plural_name": "Breweries", "icon": {"prefix": "https://ss3.4sqi.net/img/categories_v2/food/brewery_", "suffix": ".png"}}, {"id": 13064, "name": "Pizzeria", "short_name": "Pizza", "plural_name": "Pizzerias", "icon": {"prefix": "https://ss3.4sqi.net/img/categories_v2/food/pizza_", "suffix": ".png"}}], "chains": [], "closed_bucket": "LikelyOpen", "distance": 28642, "geocodes": {"main": {"latitude": 39.729336, "longitude": -104.985695}, "roof": {"latitude": 39.729336, "longitude": -104.985695}}, "link": "/v3/places/5238b84911d2b81d3be80b22", "location": {"address": "800 N Lincoln St", "address_extended": "Unit 2", "census_block": "080310027061005", "country": "US", "cross_street": "8th Street", "dma": "Denver", "formatted_address": "800 N Lincoln St (8th Street), Denver, CO 80203", "locality": "Denver", "postcode": "80203", "region": "CO"}, "name": "Lowdown Brewery + Kitchen", "related_places": {}, "timezone": "America/Denver"}, {"fsq_id": "5ae76e5586bc490039f7089b", "categories": [{"id": 13007, "name": "Beer Garden", "short_name": "Beer Garden", "plural_name": "Beer Gardens", "icon": {"prefix": "https://ss3.4sqi.net/img/categories_v2/nightlife/beergarden_", "suffix": ".png"}}, {"id": 13029, "name": "Brewery", "short_name": "Brewery", "plural_name": "Breweries", "icon": {"prefix": "https://ss3.4sqi.net/img/categories_v2/food/brewery_", "suffix": ".png"}}], "chains": [], "closed_bucket": "Unsure", "distance": 28186, "geocodes": {"main": {"latitude": 39.762268, "longitude": -104.98116}, "roof": {"latitude": 39.762268, "longitude": -104.98116}}, "link": "/v3/places/5ae76e5586bc490039f7089b", "location": {"address": "2945 Larimer St", "census_block": "080310016032001", "country": "US", "cross_street": "", "dma": "Denver", "formatted_address": "2945 Larimer St, Denver, CO 80205", "locality": "Denver", "postcode": "80205", "region": "CO"}, "name": "Odell Brewing Company", "related_places": {}, "timezone": "America/Denver"}, {"fsq_id": "5956b528f427de4e1b23a291", "categories": [{"id": 13006, "name": "Beer Bar", "short_name": "Beer Bar", "plural_name": "Beer Bars", "icon": {"prefix": "https://ss3.4sqi.net/img/categories_v2/nightlife/pub_", "suffix": ".png"}}, {"id": 13029, "name": "Brewery", "short_name": "Brewery", "plural_name": "Breweries", "icon": {"prefix": "https://ss3.4sqi.net/img/categories_v2/food/brewery_", "suffix": ".png"}}, {"id": 13065, "name": "Restaurant", "short_name": "Restaurant", "plural_name": "Restaurants", "icon": {"prefix": "https://ss3.4sqi.net/img/categories_v2/food/default_", "suffix": ".png"}}], "chains": [], "closed_bucket": "Unsure", "distance": 28448, "geocodes": {"main": {"latitude": 39.750862, "longitude": -104.98448}, "roof": {"latitude": 39.750862, "longitude": -104.98448}}, "link": "/v3/places/5956b528f427de4e1b23a291", "location": {"address": "2210 California St", "census_block": "080310024052003", "country": "US", "cross_street": "", "dma": "Denver", "formatted_address": "2210 California St, Denver, CO 80205", "locality": "Denver", "postcode": "80205", "region": "CO"}, "name": "Woods Boss Brewing Company", "related_places": {}, "timezone": "America/Denver"}, {"fsq_id": "5840b95c45005e59fe2e83cb", "categories": [{"id": 13006, "name": "Beer Bar", "short_name": "Beer Bar", "plural_name": "Beer Bars", "icon": {"prefix": "https://ss3.4sqi.net/img/categories_v2/nightlife/pub_", "suffix": ".png"}}, {"id": 13029, "name": "Brewery", "short_name": "Brewery", "plural_name": "Breweries", "icon": {"prefix": "https://ss3.4sqi.net/img/categories_v2/food/brewery_", "suffix": ".png"}}], "chains": [], "closed_bucket": "LikelyOpen", "distance": 19330, "geocodes": {"main": {"latitude": 39.752734, "longitude": -104.877942}, "roof": {"latitude": 39.752734, "longitude": -104.877942}}, "link": "/v3/places/5840b95c45005e59fe2e83cb", "location": {"address": "2501 Dallas St", "address_extended": "Ste 148", "census_block": "080010079002000", "country": "US", "cross_street": "", "dma": "Denver", "formatted_address": "2501 Dallas St, Aurora, CO 80010", "locality": "Aurora", "postcode": "80010", "region": "CO"}, "name": "Cheluna Brewing Co", "related_places": {"parent": {"fsq_id": "54244df9498e4eeeb346f0a2", "categories": [{"id": 13052, "name": "Food Court", "short_name": "Food Court", "plural_name": "Food Courts", "icon": {"prefix": "https://ss3.4sqi.net/img/categories_v2/shops/food_foodcourt_", "suffix": ".png"}}], "name": "Clementine's - Stanley Marketplace"}}, "timezone": "America/Denver"}, {"fsq_id": "4fa30ee8e4b01ab96b38c775", "categories": [{"id": 13006, "name": "Beer Bar", "short_name": "Beer Bar", "plural_name": "Beer Bars", "icon": {"prefix": "https://ss3.4sqi.net/img/categories_v2/nightlife/pub_", "suffix": ".png"}}, {"id": 13029, "name": "Brewery", "short_name": "Brewery", "plural_name": "Breweries", "icon": {"prefix": "https://ss3.4sqi.net/img/categories_v2/food/brewery_", "suffix": ".png"}}, {"id": 13065, "name": "Restaurant", "short_name": "Restaurant", "plural_name": "Restaurants", "icon": {"prefix": "https://ss3.4sqi.net/img/categories_v2/food/default_", "suffix": ".png"}}], "chains": [], "closed_bucket": "VeryLikelyOpen", "distance": 28305, "geocodes": {"main": {"latitude": 39.760494, "longitude": -104.982503}, "roof": {"latitude": 39.760494, "longitude": -104.982503}}, "link": "/v3/places/4fa30ee8e4b01ab96b38c775", "location": {"address": "2810 Larimer St", "census_block": "080310016033001", "country": "US", "dma": "Denver", "formatted_address": "2810 Larimer St, Denver, CO 80205", "locality": "Denver", "postcode": "80205", "region": "CO"}, "name": "Our Mutual Friend Malt & Brew", "related_places": {}, "timezone": "America/Denver"}, {"fsq_id": "54580a0a498e9f3cb6354a86", "categories": [{"id": 13006, "name": "Beer Bar", "short_name": "Beer Bar", "plural_name": "Beer Bars", "icon": {"prefix": "https://ss3.4sqi.net/img/categories_v2/nightlife/pub_", "suffix": ".png"}}, {"id": 13029, "name": "Brewery", "short_name": "Brewery", "plural_name": "Breweries", "icon": {"prefix": "https://ss3.4sqi.net/img/categories_v2/food/brewery_", "suffix": ".png"}}, {"id": 13065, "name": "Restaurant", "short_name": "Restaurant", "plural_name": "Restaurants", "icon": {"prefix": "https://ss3.4sqi.net/img/categories_v2/food/default_", "suffix": ".png"}}], "chains": [], "closed_bucket": "LikelyOpen", "distance": 25123, "geocodes": {"drop_off": {"latitude": 39.739758, "longitude": -104.945073}, "main": {"latitude": 39.739756, "longitude": -104.945437}, "roof": {"latitude": 39.739756, "longitude": -104.945437}}, "link": "/v3/places/54580a0a498e9f3cb6354a86", "location": {"address": "1477 Monroe St", "census_block": "080310037031004", "country": "US", "cross_street": "at E Colfax Ave", "dma": "Denver", "formatted_address": "1477 Monroe St (at E Colfax Ave), Denver, CO 80206", "locality": "Denver", "postcode": "80206", "region": "CO"}, "name": "Cerebral Brewing", "related_places": {}, "timezone": "America/Denver"}, {"fsq_id": "40e0b100f964a52024031fe3", "categories": [{"id": 13018, "name": "Pub", "short_name": "Pub", "plural_name": "Pubs", "icon": {"prefix": "https://ss3.4sqi.net/img/categories_v2/nightlife/pub_", "suffix": ".png"}}, {"id": 13029, "name": "Brewery", "short_name": "Brewery", "plural_name": "Breweries", "icon": {"prefix": "https://ss3.4sqi.net/img/categories_v2/food/brewery_", "suffix": ".png"}}, {"id": 13314, "name": "New American Restaurant", "short_name": "New American", "plural_name": "New American Restaurants", "icon": {"prefix": "https://ss3.4sqi.net/img/categories_v2/food/newamerican_", "suffix": ".png"}}], "chains": [], "closed_bucket": "LikelyOpen", "distance": 24505, "geocodes": {"main": {"latitude": 39.703105, "longitude": -104.93241}, "roof": {"latitude": 39.703105, "longitude": -104.93241}}, "link": "/v3/places/40e0b100f964a52024031fe3", "location": {"address": "4700 E Cherry Creek South Dr", "census_block": "080050049522007", "country": "US", "cross_street": "at Dexter St", "dma": "Denver", "formatted_address": "4700 E Cherry Creek South Dr (at Dexter St), Denver, CO 80246", "locality": "Denver", "postcode": "80246", "region": "CO"}, "name": "Bull & Bush", "related_places": {}, "timezone": "America/Denver"}, {"fsq_id": "56f5c4da498e706cc1987958", "categories": [{"id": 13003, "name": "Bar", "short_name": "Bar", "plural_name": "Bars", "icon": {"prefix": "https://ss3.4sqi.net/img/categories_v2/nightlife/pub_", "suffix": ".png"}}, {"id": 13029, "name": "Brewery", "short_name": "Brewery", "plural_name": "Breweries", "icon": {"prefix": "https://ss3.4sqi.net/img/categories_v2/food/brewery_", "suffix": ".png"}}, {"id": 13065, "name": "Restaurant", "short_name": "Restaurant", "plural_name": "Restaurants", "icon": {"prefix": "https://ss3.4sqi.net/img/categories_v2/food/default_", "suffix": ".png"}}], "chains": [], "closed_bucket": "VeryLikelyOpen", "distance": 28699, "geocodes": {"main": {"latitude": 39.806572, "longitude": -104.979046}, "roof": {"latitude": 39.806572, "longitude": -104.979046}}, "link": "/v3/places/56f5c4da498e706cc1987958", "location": {"address": "6021 Washington St", "address_extended": "Unit A", "census_block": "080010150003006", "country": "US", "cross_street": "", "dma": "Denver", "formatted_address": "6021 Washington St, Denver, CO 80216", "locality": "Denver", "postcode": "80216", "region": "CO"}, "name": "River North Brewery", "related_places": {}, "timezone": "America/Denver"}, {"fsq_id": "55271451498e2f11fe19bb60", "categories": [{"id": 13003, "name": "Bar", "short_name": "Bar", "plural_name": "Bars", "icon": {"prefix": "https://ss3.4sqi.net/img/categories_v2/nightlife/pub_", "suffix": ".png"}}, {"id": 13029, "name": "Brewery", "short_name": "Brewery", "plural_name": "Breweries", "icon": {"prefix": "https://ss3.4sqi.net/img/categories_v2/food/brewery_", "suffix": ".png"}}, {"id": 13068, "name": "American Restaurant", "short_name": "American", "plural_name": "American Restaurants", "icon": {"prefix": "https://ss3.4sqi.net/img/categories_v2/food/default_", "suffix": ".png"}}], "chains": [], "closed_bucket": "LikelyOpen", "distance": 27821, "geocodes": {"main": {"latitude": 39.75522, "longitude": -104.977035}, "roof": {"latitude": 39.75522, "longitude": -104.977035}}, "link": "/v3/places/55271451498e2f11fe19bb60", "location": {"address": "2736 Welton St", "census_block": "080310024041010", "country": "US", "cross_street": "", "dma": "Denver", "formatted_address": "2736 Welton St, Denver, CO 80205", "locality": "Denver", "postcode": "80205", "region": "CO"}, "name": "Spangalang Brewery", "related_places": {}, "timezone": "America/Denver"}, {"fsq_id": "578bcb66498e943994037018", "categories": [{"id": 13003, "name": "Bar", "short_name": "Bar", "plural_name": "Bars", "icon": {"prefix": "https://ss3.4sqi.net/img/categories_v2/nightlife/pub_", "suffix": ".png"}}, {"id": 13029, "name": "Brewery", "short_name": "Brewery", "plural_name": "Breweries", "icon": {"prefix": "https://ss3.4sqi.net/img/categories_v2/food/brewery_", "suffix": ".png"}}, {"id": 13068, "name": "American Restaurant", "short_name": "American", "plural_name": "American Restaurants", "icon": {"prefix": "https://ss3.4sqi.net/img/categories_v2/food/default_", "suffix": ".png"}}], "chains": [], "closed_bucket": "VeryLikelyOpen", "distance": 27951, "geocodes": {"drop_off": {"latitude": 39.773455, "longitude": -104.978303}, "main": {"latitude": 39.77358, "longitude": -104.977007}, "roof": {"latitude": 39.77358, "longitude": -104.977007}}, "link": "/v3/places/578bcb66498e943994037018", "location": {"address": "3750 Chestnut Pl", "census_block": "080310016013003", "country": "US", "cross_street": "Delgany St", "dma": "Denver", "formatted_address": "3750 Chestnut Pl (Delgany St), Denver, CO 80216", "locality": "Denver", "postcode": "80216", "region": "CO"}, "name": "Blue Moon Brewing Company \u2013 RiNo District", "related_places": {}, "timezone": "America/Denver"}, {"fsq_id": "5111cb84e4b06989652bd0b9", "categories": [{"id": 13006, "name": "Beer Bar", "short_name": "Beer Bar", "plural_name": "Beer Bars", "icon": {"prefix": "https://ss3.4sqi.net/img/categories_v2/nightlife/pub_", "suffix": ".png"}}, {"id": 13029, "name": "Brewery", "short_name": "Brewery", "plural_name": "Breweries", "icon": {"prefix": "https://ss3.4sqi.net/img/categories_v2/food/brewery_", "suffix": ".png"}}, {"id": 13068, "name": "American Restaurant", "short_name": "American", "plural_name": "American Restaurants", "icon": {"prefix": "https://ss3.4sqi.net/img/categories_v2/food/default_", "suffix": ".png"}}], "chains": [], "closed_bucket": "VeryLikelyOpen", "distance": 28230, "geocodes": {"main": {"latitude": 39.763304, "longitude": -104.981429}, "roof": {"latitude": 39.763304, "longitude": -104.981429}}, "link": "/v3/places/5111cb84e4b06989652bd0b9", "location": {"address": "3001 Walnut St", "census_block": "080310016011014", "country": "US", "cross_street": "30th", "dma": "Denver", "formatted_address": "3001 Walnut St (30th), Denver, CO 80205", "locality": "Denver", "postcode": "80205", "region": "CO"}, "name": "Epic Brewing Company", "related_places": {}, "timezone": "America/Denver"}, {"fsq_id": "4e07a5a1d22d658532a784d4", "categories": [{"id": 13003, "name": "Bar", "short_name": "Bar", "plural_name": "Bars", "icon": {"prefix": "https://ss3.4sqi.net/img/categories_v2/nightlife/pub_", "suffix": ".png"}}, {"id": 13029, "name": "Brewery", "short_name": "Brewery", "plural_name": "Breweries", "icon": {"prefix": "https://ss3.4sqi.net/img/categories_v2/food/brewery_", "suffix": ".png"}}, {"id": 13068, "name": "American Restaurant", "short_name": "American", "plural_name": "American Restaurants", "icon": {"prefix": "https://ss3.4sqi.net/img/categories_v2/food/default_", "suffix": ".png"}}], "chains": [], "closed_bucket": "VeryLikelyOpen", "distance": 29768, "geocodes": {"main": {"latitude": 39.73063, "longitude": -104.99933}, "roof": {"latitude": 39.73063, "longitude": -104.99933}}, "link": "/v3/places/4e07a5a1d22d658532a784d4", "location": {"address": "925 W 9th Ave", "census_block": "080310018002007", "country": "US", "cross_street": "between Santa Fe and Kalamath", "dma": "Denver", "formatted_address": "925 W 9th Ave (between Santa Fe and Kalamath), Denver, CO 80204", "locality": "Denver", "postcode": "80204", "region": "CO"}, "name": "Renegade Brewing Company", "related_places": {}, "timezone": "America/Denver"}, {"fsq_id": "40e0b100f964a5202c041fe3", "categories": [{"id": 13016, "name": "Lounge", "short_name": "Lounge", "plural_name": "Lounges", "icon": {"prefix": "https://ss3.4sqi.net/img/categories_v2/nightlife/default_", "suffix": ".png"}}, {"id": 13029, "name": "Brewery", "short_name": "Brewery", "plural_name": "Breweries", "icon": {"prefix": "https://ss3.4sqi.net/img/categories_v2/food/brewery_", "suffix": ".png"}}, {"id": 13068, "name": "American Restaurant", "short_name": "American", "plural_name": "American Restaurants", "icon": {"prefix": "https://ss3.4sqi.net/img/categories_v2/food/default_", "suffix": ".png"}}], "chains": [], "closed_bucket": "LikelyOpen", "distance": 29639, "geocodes": {"main": {"latitude": 39.753529, "longitude": -104.998503}, "roof": {"latitude": 39.753529, "longitude": -104.998503}}, "link": "/v3/places/40e0b100f964a5202c041fe3", "location": {"address": "1634 18th St", "census_block": "080310017043002", "country": "US", "dma": "Denver", "formatted_address": "1634 18th St, Denver, CO 80202", "locality": "Denver", "postcode": "80202", "region": "CO"}, "name": "Wynkoop Brewing Company", "related_places": {}, "timezone": "America/Denver"}, {"fsq_id": "52fd2ddb498ef1b4b00b89b6", "categories": [{"id": 13029, "name": "Brewery", "short_name": "Brewery", "plural_name": "Breweries", "icon": {"prefix": "https://ss3.4sqi.net/img/categories_v2/food/brewery_", "suffix": ".png"}}, {"id": 13065, "name": "Restaurant", "short_name": "Restaurant", "plural_name": "Restaurants", "icon": {"prefix": "https://ss3.4sqi.net/img/categories_v2/food/default_", "suffix": ".png"}}], "chains": [], "closed_bucket": "LikelyOpen", "distance": 29515, "geocodes": {"main": {"latitude": 39.685411, "longitude": -104.987147}, "roof": {"latitude": 39.685411, "longitude": -104.987147}}, "link": "/v3/places/52fd2ddb498ef1b4b00b89b6", "location": {"address": "1710 S Broadway", "census_block": "080310030061004", "country": "US", "cross_street": "W Mexico Ave", "dma": "Denver", "formatted_address": "1710 S Broadway (W Mexico Ave), Denver, CO 80210", "locality": "Denver", "postcode": "80210", "region": "CO"}, "name": "Grandma's House", "related_places": {}, "timezone": "America/Denver"}, {"fsq_id": "4ec031f52c5b252c19d438cf", "categories": [{"id": 13003, "name": "Bar", "short_name": "Bar", "plural_name": "Bars", "icon": {"prefix": "https://ss3.4sqi.net/img/categories_v2/nightlife/pub_", "suffix": ".png"}}, {"id": 13029, "name": "Brewery", "short_name": "Brewery", "plural_name": "Breweries", "icon": {"prefix": "https://ss3.4sqi.net/img/categories_v2/food/brewery_", "suffix": ".png"}}], "chains": [], "closed_bucket": "LikelyOpen", "distance": 29122, "geocodes": {"main": {"latitude": 39.56237, "longitude": -104.893107}, "roof": {"latitude": 39.56237, "longitude": -104.893107}}, "link": "/v3/places/4ec031f52c5b252c19d438cf", "location": {"address": "8222 Park Meadows Dr", "census_block": "080350141141006", "country": "US", "cross_street": "", "dma": "Denver", "formatted_address": "8222 Park Meadows Dr, Lone Tree, CO 80124", "locality": "Lone Tree", "postcode": "80124", "region": "CO"}, "name": "Lone Tree Brewery Co.", "related_places": {}, "timezone": "America/Denver"}, {"fsq_id": "540b8d5c498ebc7a3b1e1474", "categories": [{"id": 13003, "name": "Bar", "short_name": "Bar", "plural_name": "Bars", "icon": {"prefix": "https://ss3.4sqi.net/img/categories_v2/nightlife/pub_", "suffix": ".png"}}, {"id": 13029, "name": "Brewery", "short_name": "Brewery", "plural_name": "Breweries", "icon": {"prefix": "https://ss3.4sqi.net/img/categories_v2/food/brewery_", "suffix": ".png"}}, {"id": 13387, "name": "Winery", "short_name": "Winery", "plural_name": "Wineries", "icon": {"prefix": "https://ss3.4sqi.net/img/categories_v2/food/winery_", "suffix": ".png"}}], "chains": [], "closed_bucket": "VeryLikelyOpen", "distance": 29029, "geocodes": {"drop_off": {"latitude": 39.682628, "longitude": -104.980493}, "front_door": {"latitude": 39.682587, "longitude": -104.98062}, "main": {"latitude": 39.682587, "longitude": -104.98062}, "roof": {"latitude": 39.682631, "longitude": -104.980797}}, "link": "/v3/places/540b8d5c498ebc7a3b1e1474", "location": {"address": "1875 S Pearl St", "census_block": "080310030062010", "country": "US", "cross_street": "E. Jewel Ave.", "dma": "Denver", "formatted_address": "1875 S Pearl St (E. Jewel Ave.), Denver, CO 80210", "locality": "Denver", "postcode": "80210", "region": "CO"}, "name": "Platt Park Brewing Co", "related_places": {}, "timezone": "America/Denver"}, {"fsq_id": "5ad35d653ba7673e61d50df6", "categories": [{"id": 13029, "name": "Brewery", "short_name": "Brewery", "plural_name": "Breweries", "icon": {"prefix": "https://ss3.4sqi.net/img/categories_v2/food/brewery_", "suffix": ".png"}}], "chains": [], "closed_bucket": "VeryLikelyOpen", "distance": 23687, "geocodes": {"drop_off": {"latitude": 39.758229, "longitude": -104.928238}, "main": {"latitude": 39.758228, "longitude": -104.928549}, "roof": {"latitude": 39.758228, "longitude": -104.928549}}, "link": "/v3/places/5ad35d653ba7673e61d50df6", "location": {"address": "2895 Fairfax St", "census_block": "080310041032005", "country": "US", "cross_street": "29th Ave & Fairfax St", "dma": "Denver", "formatted_address": "2895 Fairfax St (29th Ave & Fairfax St), Denver, CO 80207", "locality": "Denver", "postcode": "80207", "region": "CO"}, "name": "Long Table Brewhouse", "related_places": {}, "timezone": "America/Denver"}, {"fsq_id": "5d2a2c83afbe290023906aeb", "categories": [{"id": 13003, "name": "Bar", "short_name": "Bar", "plural_name": "Bars", "icon": {"prefix": "https://ss3.4sqi.net/img/categories_v2/nightlife/pub_", "suffix": ".png"}}, {"id": 13029, "name": "Brewery", "short_name": "Brewery", "plural_name": "Breweries", "icon": {"prefix": "https://ss3.4sqi.net/img/categories_v2/food/brewery_", "suffix": ".png"}}], "chains": [], "closed_bucket": "VeryLikelyOpen", "distance": 27878, "geocodes": {"main": {"latitude": 39.767448, "longitude": -104.976992}, "roof": {"latitude": 39.767448, "longitude": -104.976992}}, "link": "/v3/places/5d2a2c83afbe290023906aeb", "location": {"address": "3400 Blake St", "census_block": "080310016011005", "country": "US", "cross_street": "34th St", "dma": "Denver", "formatted_address": "3400 Blake St (34th St), Denver, CO 80205", "locality": "Denver", "postcode": "80205", "region": "CO"}, "name": "River North Brewery", "related_places": {}, "timezone": "America/Denver"}, {"fsq_id": "4ee2263f4fc6a6fab58d9d4d", "categories": [{"id": 13003, "name": "Bar", "short_name": "Bar", "plural_name": "Bars", "icon": {"prefix": "https://ss3.4sqi.net/img/categories_v2/nightlife/pub_", "suffix": ".png"}}, {"id": 13029, "name": "Brewery", "short_name": "Brewery", "plural_name": "Breweries", "icon": {"prefix": "https://ss3.4sqi.net/img/categories_v2/food/brewery_", "suffix": ".png"}}], "chains": [], "closed_bucket": "LikelyOpen", "distance": 28877, "geocodes": {"main": {"latitude": 39.719852, "longitude": -104.98796}, "roof": {"latitude": 39.719852, "longitude": -104.98796}}, "link": "/v3/places/4ee2263f4fc6a6fab58d9d4d", "location": {"address": "227 N Broadway", "census_block": "080310021011017", "country": "US", "cross_street": "btwn W 3rd Ave and E 2nd Ave", "dma": "Denver", "formatted_address": "227 N Broadway (btwn W 3rd Ave and E 2nd Ave), Denver, CO 80203", "locality": "Denver", "postcode": "80203", "region": "CO"}, "name": "TRVE Brewing Co.", "related_places": {"children": [{"fsq_id": "614d0fc858452638d09fdeb7", "categories": [{"id": 13006, "name": "Beer Bar", "short_name": "Beer Bar", "plural_name": "Beer Bars", "icon": {"prefix": "https://ss3.4sqi.net/img/categories_v2/nightlife/pub_", "suffix": ".png"}}, {"id": 13055, "name": "Fried Chicken Joint", "short_name": "Fried Chicken", "plural_name": "Fried Chicken Joints", "icon": {"prefix": "https://ss3.4sqi.net/img/categories_v2/food/friedchicken_", "suffix": ".png"}}, {"id": 13334, "name": "Sandwich Spot", "short_name": "Sandwich Spot", "plural_name": "Sandwich Spots", "icon": {"prefix": "https://ss3.4sqi.net/img/categories_v2/food/deli_", "suffix": ".png"}}], "name": "Music City Hot Chicken"}]}, "timezone": "America/Denver"}, {"fsq_id": "52599cdd498ea75471e2f3b2", "categories": [{"id": 13006, "name": "Beer Bar", "short_name": "Beer Bar", "plural_name": "Beer Bars", "icon": {"prefix": "https://ss3.4sqi.net/img/categories_v2/nightlife/pub_", "suffix": ".png"}}, {"id": 13029, "name": "Brewery", "short_name": "Brewery", "plural_name": "Breweries", "icon": {"prefix": "https://ss3.4sqi.net/img/categories_v2/food/brewery_", "suffix": ".png"}}, {"id": 13065, "name": "Restaurant", "short_name": "Restaurant", "plural_name": "Restaurants", "icon": {"prefix": "https://ss3.4sqi.net/img/categories_v2/food/default_", "suffix": ".png"}}], "chains": [], "closed_bucket": "LikelyOpen", "distance": 28140, "geocodes": {"main": {"latitude": 39.764725, "longitude": -104.980201}, "roof": {"latitude": 39.764725, "longitude": -104.980201}}, "link": "/v3/places/52599cdd498ea75471e2f3b2", "location": {"address": "3120 Blake St", "address_extended": "# C", "census_block": "080310016011013", "country": "US", "cross_street": "", "dma": "Denver", "formatted_address": "3120 Blake St, Denver, CO 80205", "locality": "Denver", "postcode": "80205", "region": "CO"}, "name": "Beryl's Beer Co", "related_places": {}, "timezone": "America/Denver"}, {"fsq_id": "57ad1f78cd1079c6521a8fe2", "categories": [{"id": 13003, "name": "Bar", "short_name": "Bar", "plural_name": "Bars", "icon": {"prefix": "https://ss3.4sqi.net/img/categories_v2/nightlife/pub_", "suffix": ".png"}}, {"id": 13029, "name": "Brewery", "short_name": "Brewery", "plural_name": "Breweries", "icon": {"prefix": "https://ss3.4sqi.net/img/categories_v2/food/brewery_", "suffix": ".png"}}, {"id": 13068, "name": "American Restaurant", "short_name": "American", "plural_name": "American Restaurants", "icon": {"prefix": "https://ss3.4sqi.net/img/categories_v2/food/default_", "suffix": ".png"}}], "chains": [], "closed_bucket": "LikelyOpen", "distance": 28454, "geocodes": {"main": {"latitude": 39.762901, "longitude": -104.984076}, "roof": {"latitude": 39.762901, "longitude": -104.984076}}, "link": "/v3/places/57ad1f78cd1079c6521a8fe2", "location": {"address": "2875 Blake St", "census_block": "080310016013013", "country": "US", "cross_street": "", "dma": "Denver", "formatted_address": "2875 Blake St, Denver, CO 80205", "locality": "Denver", "postcode": "80205", "region": "CO"}, "name": "Bierstadt Lagerhaus", "related_places": {"children": [{"fsq_id": "61f4a900bf60467ffae393e5", "categories": [{"id": 13025, "name": "Wine Bar", "short_name": "Wine Bar", "plural_name": "Wine Bars", "icon": {"prefix": "https://ss3.4sqi.net/img/categories_v2/food/winery_", "suffix": ".png"}}, {"id": 13065, "name": "Restaurant", "short_name": "Restaurant", "plural_name": "Restaurants", "icon": {"prefix": "https://ss3.4sqi.net/img/categories_v2/food/default_", "suffix": ".png"}}, {"id": 13387, "name": "Winery", "short_name": "Winery", "plural_name": "Wineries", "icon": {"prefix": "https://ss3.4sqi.net/img/categories_v2/food/winery_", "suffix": ".png"}}], "name": "Deep Roots Winery"}]}, "timezone": "America/Denver"}, {"fsq_id": "4a91aec5f964a520571b20e3", "categories": [{"id": 13029, "name": "Brewery", "short_name": "Brewery", "plural_name": "Breweries", "icon": {"prefix": "https://ss3.4sqi.net/img/categories_v2/food/brewery_", "suffix": ".png"}}, {"id": 13068, "name": "American Restaurant", "short_name": "American", "plural_name": "American Restaurants", "icon": {"prefix": "https://ss3.4sqi.net/img/categories_v2/food/default_", "suffix": ".png"}}, {"id": 13387, "name": "Winery", "short_name": "Winery", "plural_name": "Wineries", "icon": {"prefix": "https://ss3.4sqi.net/img/categories_v2/food/winery_", "suffix": ".png"}}], "chains": [], "closed_bucket": "VeryLikelyOpen", "distance": 27821, "geocodes": {"main": {"latitude": 39.815958, "longitude": -104.964914}, "roof": {"latitude": 39.815958, "longitude": -104.964914}}, "link": "/v3/places/4a91aec5f964a520571b20e3", "location": {"address": "1946 E 66th Ave", "census_block": "080010150002055", "country": "US", "cross_street": "York", "dma": "Denver", "formatted_address": "1946 E 66th Ave (York), Denver, CO 80229", "locality": "Denver", "postcode": "80229", "region": "CO"}, "name": "Balistreri Vineyards", "related_places": {}, "timezone": "America/Denver"}, {"fsq_id": "5301340f498ec6dcba8a420e", "categories": [{"id": 13029, "name": "Brewery", "short_name": "Brewery", "plural_name": "Breweries", "icon": {"prefix": "https://ss3.4sqi.net/img/categories_v2/food/brewery_", "suffix": ".png"}}], "chains": [], "closed_bucket": "LikelyOpen", "distance": 15490, "geocodes": {"main": {"latitude": 39.635198, "longitude": -104.759134}, "roof": {"latitude": 39.635198, "longitude": -104.759134}}, "link": "/v3/places/5301340f498ec6dcba8a420e", "location": {"address": "4550 S Reservoir Rd", "census_block": "080050859002024", "country": "US", "cross_street": "S Reservoir Rd & S Flanders St", "dma": "Denver", "formatted_address": "4550 S Reservoir Rd (S Reservoir Rd & S Flanders St), Centennial, CO 80015", "locality": "Centennial", "postcode": "80015", "region": "CO"}, "name": "Two22 Brew", "related_places": {}, "timezone": "America/Denver"}, {"fsq_id": "57535102498eb5969014098f", "categories": [{"id": 13006, "name": "Beer Bar", "short_name": "Beer Bar", "plural_name": "Beer Bars", "icon": {"prefix": "https://ss3.4sqi.net/img/categories_v2/nightlife/pub_", "suffix": ".png"}}, {"id": 13029, "name": "Brewery", "short_name": "Brewery", "plural_name": "Breweries", "icon": {"prefix": "https://ss3.4sqi.net/img/categories_v2/food/brewery_", "suffix": ".png"}}, {"id": 13068, "name": "American Restaurant", "short_name": "American", "plural_name": "American Restaurants", "icon": {"prefix": "https://ss3.4sqi.net/img/categories_v2/food/default_", "suffix": ".png"}}], "chains": [], "closed_bucket": "VeryLikelyOpen", "distance": 28798, "geocodes": {"main": {"latitude": 39.723791, "longitude": -104.987069}, "roof": {"latitude": 39.723791, "longitude": -104.987069}}, "link": "/v3/places/57535102498eb5969014098f", "location": {"address": "470 N Broadway", "census_block": "080310028025008", "country": "US", "cross_street": "5th Ave.", "dma": "Denver", "formatted_address": "470 N Broadway (5th Ave.), Denver, CO 80203", "locality": "Denver", "postcode": "80203", "region": "CO"}, "name": "Banded Oak Brewing Company", "related_places": {}, "timezone": "America/Denver"}, {"fsq_id": "5ba180f70719020025b5da73", "categories": [{"id": 13020, "name": "Sake Bar", "short_name": "Sake Bar", "plural_name": "Sake Bars", "icon": {"prefix": "https://ss3.4sqi.net/img/categories_v2/nightlife/sake_", "suffix": ".png"}}, {"id": 13029, "name": "Brewery", "short_name": "Brewery", "plural_name": "Breweries", "icon": {"prefix": "https://ss3.4sqi.net/img/categories_v2/food/brewery_", "suffix": ".png"}}, {"id": 13065, "name": "Restaurant", "short_name": "Restaurant", "plural_name": "Restaurants", "icon": {"prefix": "https://ss3.4sqi.net/img/categories_v2/food/default_", "suffix": ".png"}}], "chains": [], "closed_bucket": "VeryLikelyOpen", "distance": 27626, "geocodes": {"main": {"latitude": 39.767845, "longitude": -104.973809}, "roof": {"latitude": 39.767845, "longitude": -104.973809}}, "link": "/v3/places/5ba180f70719020025b5da73", "location": {"address": "3559 Larimer St", "census_block": "080310016011003", "country": "US", "cross_street": "", "dma": "Denver", "formatted_address": "3559 Larimer St, Denver, CO 80205", "locality": "Denver", "postcode": "80205", "region": "CO"}, "name": "Colorado Sake Co.", "related_places": {}, "timezone": "America/Denver"}, {"fsq_id": "4ae39034f964a520b79621e3", "categories": [{"id": 13029, "name": "Brewery", "short_name": "Brewery", "plural_name": "Breweries", "icon": {"prefix": "https://ss3.4sqi.net/img/categories_v2/food/brewery_", "suffix": ".png"}}, {"id": 13068, "name": "American Restaurant", "short_name": "American", "plural_name": "American Restaurants", "icon": {"prefix": "https://ss3.4sqi.net/img/categories_v2/food/default_", "suffix": ".png"}}, {"id": 13383, "name": "Steakhouse", "short_name": "Steakhouse", "plural_name": "Steakhouses", "icon": {"prefix": "https://ss3.4sqi.net/img/categories_v2/food/steakhouse_", "suffix": ".png"}}], "chains": [], "closed_bucket": "LikelyOpen", "distance": 29553, "geocodes": {"drop_off": {"latitude": 39.754968, "longitude": -104.997327}, "front_door": {"latitude": 39.754968, "longitude": -104.997381}, "main": {"latitude": 39.754968, "longitude": -104.997381}, "roof": {"latitude": 39.755015, "longitude": -104.997268}}, "link": "/v3/places/4ae39034f964a520b79621e3", "location": {"address": "1735 19th St", "address_extended": "Ste 100", "census_block": "080310017054002", "country": "US", "cross_street": "at Wynkoop", "dma": "Denver", "formatted_address": "1735 19th St (at Wynkoop), Denver, CO 80202", "locality": "Denver", "postcode": "80202", "region": "CO"}, "name": "ChopHouse & Brewery Denver", "related_places": {}, "timezone": "America/Denver"}, {"fsq_id": "610ccf644644a4264dec763b", "categories": [{"id": 13003, "name": "Bar", "short_name": "Bar", "plural_name": "Bars", "icon": {"prefix": "https://ss3.4sqi.net/img/categories_v2/nightlife/pub_", "suffix": ".png"}}, {"id": 13029, "name": "Brewery", "short_name": "Brewery", "plural_name": "Breweries", "icon": {"prefix": "https://ss3.4sqi.net/img/categories_v2/food/brewery_", "suffix": ".png"}}], "chains": [], "closed_bucket": "VeryLikelyOpen", "distance": 26276, "geocodes": {"main": {"latitude": 39.769693, "longitude": -104.957374}, "roof": {"latitude": 39.769693, "longitude": -104.957374}}, "link": "/v3/places/610ccf644644a4264dec763b", "location": {"address": "3851 N Steele St", "census_block": "080310036021007", "country": "US", "cross_street": "39th", "dma": "Denver", "formatted_address": "3851 N Steele St (39th), Denver, CO 80205", "locality": "Denver", "postcode": "80205", "region": "CO"}, "name": "Cohesion Brewing Company", "related_places": {}, "timezone": "America/Denver"}, {"fsq_id": "50f857cbe4b0385dddce4f5c", "categories": [{"id": 13003, "name": "Bar", "short_name": "Bar", "plural_name": "Bars", "icon": {"prefix": "https://ss3.4sqi.net/img/categories_v2/nightlife/pub_", "suffix": ".png"}}, {"id": 13029, "name": "Brewery", "short_name": "Brewery", "plural_name": "Breweries", "icon": {"prefix": "https://ss3.4sqi.net/img/categories_v2/food/brewery_", "suffix": ".png"}}, {"id": 13064, "name": "Pizzeria", "short_name": "Pizza", "plural_name": "Pizzerias", "icon": {"prefix": "https://ss3.4sqi.net/img/categories_v2/food/pizza_", "suffix": ".png"}}], "chains": [], "closed_bucket": "LikelyOpen", "distance": 29746, "geocodes": {"main": {"latitude": 39.723937, "longitude": -104.99838}, "roof": {"latitude": 39.723937, "longitude": -104.99838}}, "link": "/v3/places/50f857cbe4b0385dddce4f5c", "location": {"address": "490 Santa Fe Dr", "census_block": "080310021013007", "country": "US", "cross_street": "5th Ave", "dma": "Denver", "formatted_address": "490 Santa Fe Dr (5th Ave), Denver, CO 80204", "locality": "Denver", "postcode": "80204", "region": "CO"}, "name": "Black Sky Brewery", "related_places": {}, "timezone": "America/Denver"}, {"fsq_id": "56ce3c26498e2f5c98fc9dea", "categories": [{"id": 13007, "name": "Beer Garden", "short_name": "Beer Garden", "plural_name": "Beer Gardens", "icon": {"prefix": "https://ss3.4sqi.net/img/categories_v2/nightlife/beergarden_", "suffix": ".png"}}, {"id": 13029, "name": "Brewery", "short_name": "Brewery", "plural_name": "Breweries", "icon": {"prefix": "https://ss3.4sqi.net/img/categories_v2/food/brewery_", "suffix": ".png"}}], "chains": [], "closed_bucket": "VeryLikelyOpen", "distance": 29108, "geocodes": {"main": {"latitude": 39.5935, "longitude": -104.927352}, "roof": {"latitude": 39.5935, "longitude": -104.927352}}, "link": "/v3/places/56ce3c26498e2f5c98fc9dea", "location": {"address": "5150 E Arapahoe Rd", "address_extended": "Ste D1-B", "census_block": "080050056283004", "country": "US", "cross_street": "", "dma": "Denver", "formatted_address": "5150 E Arapahoe Rd, Littleton, CO 80122", "locality": "Littleton", "postcode": "80122", "region": "CO"}, "name": "Halfpenny Brewing Company", "related_places": {}, "timezone": "America/Denver"}, {"fsq_id": "54f39248498edbb843f2f704", "categories": [{"id": 13029, "name": "Brewery", "short_name": "Brewery", "plural_name": "Breweries", "icon": {"prefix": "https://ss3.4sqi.net/img/categories_v2/food/brewery_", "suffix": ".png"}}, {"id": 13065, "name": "Restaurant", "short_name": "Restaurant", "plural_name": "Restaurants", "icon": {"prefix": "https://ss3.4sqi.net/img/categories_v2/food/default_", "suffix": ".png"}}], "chains": [], "closed_bucket": "VeryLikelyOpen", "distance": 27156, "geocodes": {"main": {"latitude": 39.522422, "longitude": -104.775157}, "roof": {"latitude": 39.522422, "longitude": -104.775157}}, "link": "/v3/places/54f39248498edbb843f2f704", "location": {"address": "18425 Pony Express Dr", "address_extended": "Unit 125", "census_block": "080350139043014", "country": "US", "cross_street": "TWENTY MILE", "dma": "Denver", "formatted_address": "18425 Pony Express Dr (TWENTY MILE), Parker, CO 80134", "locality": "Parker", "postcode": "80134", "region": "CO"}, "name": "Barnett & Son Brewing Co.", "related_places": {"children": []}, "timezone": "America/Denver"}, {"fsq_id": "62eed6e27c23c809cf91a3b5", "categories": [{"id": 13065, "name": "Restaurant", "short_name": "Restaurant", "plural_name": "Restaurants", "icon": {"prefix": "https://ss3.4sqi.net/img/categories_v2/food/default_", "suffix": ".png"}}, {"id": 13029, "name": "Brewery", "short_name": "Brewery", "plural_name": "Breweries", "icon": {"prefix": "https://ss3.4sqi.net/img/categories_v2/food/brewery_", "suffix": ".png"}}], "chains": [], "closed_bucket": "LikelyOpen", "distance": 20594, "geocodes": {"drop_off": {"latitude": 39.7606, "longitude": -104.892565}, "main": {"latitude": 39.760596, "longitude": -104.891999}, "roof": {"latitude": 39.760596, "longitude": -104.891999}}, "link": "/v3/places/62eed6e27c23c809cf91a3b5", "location": {"address": "3120 Uinta St", "census_block": "080310041131054", "country": "US", "cross_street": "", "dma": "Denver", "formatted_address": "3120 Uinta St, Denver, CO 80238", "locality": "Denver", "postcode": "80238", "region": "CO"}, "name": "FlyteCo Tower", "related_places": {}, "timezone": "America/Denver"}, {"fsq_id": "5c1d5cc2f05ca8002ee608ed", "categories": [{"id": 13029, "name": "Brewery", "short_name": "Brewery", "plural_name": "Breweries", "icon": {"prefix": "https://ss3.4sqi.net/img/categories_v2/food/brewery_", "suffix": ".png"}}], "chains": [], "closed_bucket": "VeryLikelyOpen", "distance": 26506, "geocodes": {"main": {"latitude": 39.527018, "longitude": -104.770138}, "roof": {"latitude": 39.527018, "longitude": -104.770138}}, "link": "/v3/places/5c1d5cc2f05ca8002ee608ed", "location": {"address": "18921 Plaza Dr", "census_block": "080350139043017", "country": "US", "cross_street": "", "dma": "Denver", "formatted_address": "18921 Plaza Dr, Parker, CO 80134", "locality": "Parker", "postcode": "80134", "region": "CO"}, "name": "Downhill Brewing", "related_places": {"children": []}, "timezone": "America/Denver"}, {"fsq_id": "5b5e3f5da2a6ce002c4b41cf", "categories": [{"id": 13006, "name": "Beer Bar", "short_name": "Beer Bar", "plural_name": "Beer Bars", "icon": {"prefix": "https://ss3.4sqi.net/img/categories_v2/nightlife/pub_", "suffix": ".png"}}, {"id": 13029, "name": "Brewery", "short_name": "Brewery", "plural_name": "Breweries", "icon": {"prefix": "https://ss3.4sqi.net/img/categories_v2/food/brewery_", "suffix": ".png"}}], "chains": [], "closed_bucket": "VeryLikelyOpen", "distance": 29277, "geocodes": {"main": {"latitude": 39.693969, "longitude": -104.98705}, "roof": {"latitude": 39.693969, "longitude": -104.98705}}, "link": "/v3/places/5b5e3f5da2a6ce002c4b41cf", "location": {"address": "1236 S Broadway", "census_block": "080310030051004", "country": "US", "cross_street": "", "dma": "Denver", "formatted_address": "1236 S Broadway, Denver, CO 80210", "locality": "Denver", "postcode": "80210", "region": "CO"}, "name": "Dos Luces Brewery", "related_places": {}, "timezone": "America/Denver"}, {"fsq_id": "5b47d04db5cb76002ccc6c05", "categories": [{"id": 13003, "name": "Bar", "short_name": "Bar", "plural_name": "Bars", "icon": {"prefix": "https://ss3.4sqi.net/img/categories_v2/nightlife/pub_", "suffix": ".png"}}, {"id": 13029, "name": "Brewery", "short_name": "Brewery", "plural_name": "Breweries", "icon": {"prefix": "https://ss3.4sqi.net/img/categories_v2/food/brewery_", "suffix": ".png"}}], "chains": [], "closed_bucket": "VeryLikelyOpen", "distance": 29295, "geocodes": {"drop_off": {"latitude": 39.718379, "longitude": -104.992314}, "main": {"latitude": 39.718554, "longitude": -104.992312}, "roof": {"latitude": 39.718554, "longitude": -104.992312}}, "link": "/v3/places/5b47d04db5cb76002ccc6c05", "location": {"address": "305 W 1st Ave", "census_block": "080310021012007", "country": "US", "cross_street": "", "dma": "Denver", "formatted_address": "305 W 1st Ave, Denver, CO 80223", "locality": "Denver", "postcode": "80223", "region": "CO"}, "name": "Novel Strand Brewing Company", "related_places": {}, "timezone": "America/Denver"}, {"fsq_id": "522132a711d261ae095938b9", "categories": [{"id": 13006, "name": "Beer Bar", "short_name": "Beer Bar", "plural_name": "Beer Bars", "icon": {"prefix": "https://ss3.4sqi.net/img/categories_v2/nightlife/pub_", "suffix": ".png"}}, {"id": 13029, "name": "Brewery", "short_name": "Brewery", "plural_name": "Breweries", "icon": {"prefix": "https://ss3.4sqi.net/img/categories_v2/food/brewery_", "suffix": ".png"}}, {"id": 13065, "name": "Restaurant", "short_name": "Restaurant", "plural_name": "Restaurants", "icon": {"prefix": "https://ss3.4sqi.net/img/categories_v2/food/default_", "suffix": ".png"}}], "chains": [], "closed_bucket": "LikelyOpen", "distance": 29048, "geocodes": {"main": {"latitude": 39.752242, "longitude": -104.991448}, "roof": {"latitude": 39.752242, "longitude": -104.991448}}, "link": "/v3/places/522132a711d261ae095938b9", "location": {"address": "1139 20th St", "census_block": "080310016031010", "country": "US", "cross_street": "Lawrence Street", "dma": "Denver", "formatted_address": "1139 20th St (Lawrence Street), Denver, CO 80202", "locality": "Denver", "postcode": "80202", "region": "CO"}, "name": "Jagged Mountain Craft Brewery", "related_places": {"children": [{"fsq_id": "64724d1b87010b3327e0a4fa", "categories": [{"id": 13035, "name": "Coffee Shop", "short_name": "Coffee Shop", "plural_name": "Coffee Shops", "icon": {"prefix": "https://ss3.4sqi.net/img/categories_v2/food/coffeeshop_", "suffix": ".png"}}], "name": "Slackline Coffee"}]}, "timezone": "America/Denver"}, {"fsq_id": "40e0b100f964a520f4031fe3", "categories": [{"id": 13003, "name": "Bar", "short_name": "Bar", "plural_name": "Bars", "icon": {"prefix": "https://ss3.4sqi.net/img/categories_v2/nightlife/pub_", "suffix": ".png"}}, {"id": 13029, "name": "Brewery", "short_name": "Brewery", "plural_name": "Breweries", "icon": {"prefix": "https://ss3.4sqi.net/img/categories_v2/food/brewery_", "suffix": ".png"}}, {"id": 13065, "name": "Restaurant", "short_name": "Restaurant", "plural_name": "Restaurants", "icon": {"prefix": "https://ss3.4sqi.net/img/categories_v2/food/default_", "suffix": ".png"}}], "chains": [], "closed_bucket": "Unsure", "distance": 29131, "geocodes": {"main": {"latitude": 39.755891, "longitude": -104.992502}, "roof": {"latitude": 39.755891, "longitude": -104.992502}}, "link": "/v3/places/40e0b100f964a520f4031fe3", "location": {"address": "2161 Blake St", "census_block": "080310016021003", "country": "US", "dma": "Denver", "formatted_address": "2161 Blake St, Denver, CO 80205", "locality": "Denver", "postcode": "80205", "region": "CO"}, "name": "Sandlot Brewery", "related_places": {"parent": {"fsq_id": "49df890ff964a520d2601fe3", "categories": [{"id": 10051, "name": "Stadium", "short_name": "Stadium", "plural_name": "Stadiums", "icon": {"prefix": "https://ss3.4sqi.net/img/categories_v2/arts_entertainment/stadium_", "suffix": ".png"}}], "name": "Coors Field"}, "children": [{"fsq_id": "55870d43498ee7321397dd4d", "categories": [{"id": 13026, "name": "BBQ Joint", "short_name": "BBQ", "plural_name": "BBQ Joints", "icon": {"prefix": "https://ss3.4sqi.net/img/categories_v2/food/bbqalt_", "suffix": ".png"}}, {"id": 13068, "name": "American Restaurant", "short_name": "American", "plural_name": "American Restaurants", "icon": {"prefix": "https://ss3.4sqi.net/img/categories_v2/food/default_", "suffix": ".png"}}], "name": "Smokehouse at Blue Moon Brewing"}]}, "timezone": "America/Denver"}], "context": {"geo_bounds": {"circle": {"center": {"latitude": 39.7473, "longitude": -104.6516}, "radius": 22000}}}}]