[{"results": [{"fsq_id": "533884d5498e7ec922b31938", "categories": [{"id": 13029, "name": "Brewery", "short_name": "Brewery", "plural_name": "Breweries", "icon": {"prefix": "https://ss3.4sqi.net/img/categories_v2/food/brewery_", "suffix": ".png"}}, {"id": 13065, "name": "Restaurant", "short_name": "Restaurant", "plural_name": "Restaurants", "icon": {"prefix": "https://ss3.4sqi.net/img/categories_v2/food/default_", "suffix": ".png"}}], "chains": [], "closed_bucket": "VeryLikelyOpen", "distance": 3587, "geocodes": {"main": {"latitude": 39.906543, "longitude": -105.098454}, "roof": {"latitude": 39.906543, "longitude": -105.098454}}, "link": "/v3/places/533884d5498e7ec922b31938", "location": {"address": "8855 W 116th Cir", "address_extended": "Ste 3", "census_block": "080140311011007", "country": "US", "cross_street": "", "dma": "Denver", "formatted_address": "8855 W 116th Cir, Broomfield, CO 80021", "locality": "Broomfield", "postcode": "80021", "region": "CO"}, "name": "4 Noses Brewing Company", "related_places": {}, "timezone": "America/Denver"}, {"fsq_id": "57aa2e7a498e927eecf1c58b", "categories": [{"id": 13003, "name": "Bar", "short_name": "Bar", "plural_name": "Bars", "icon": {"prefix": "https://ss3.4sqi.net/img/categories_v2/nightlife/pub_", "suffix": ".png"}}, {"id": 13029, "name": "Brewery", "short_name": "Brewery", "plural_name": "Breweries", "icon": {"prefix": "https://ss3.4sqi.net/img/categories_v2/food/brewery_", "suffix": ".png"}}], "chains": [], "closed_bucket": "VeryLikelyOpen", "distance": 3580, "geocodes": {"main": {"latitude": 39.908445, "longitude": -105.07509}, "roof": {"latitude": 39.908445, "longitude": -105.07509}}, "link": "/v3/places/57aa2e7a498e927eecf1c58b", "location": {"address": "11625 Reed Ct", "address_extended": "Unit B", "census_block": "080140302001062", "country": "US", "cross_street": "", "dma": "Denver", "formatted_address": "11625 Reed Ct, Broomfield, CO 80020", "locality": "Broomfield", "postcode": "80020", "region": "CO"}, "name": "Rails End Beer Company", "related_places": {}, "timezone": "America/Denver"}, {"fsq_id": "510d960ee4b0f2f1a7c893fe", "categories": [{"id": 13003, "name": "Bar", "short_name": "Bar", "plural_name": "Bars", "icon": {"prefix": "https://ss3.4sqi.net/img/categories_v2/nightlife/pub_", "suffix": ".png"}}, {"id": 13029, "name": "Brewery", "short_name": "Brewery", "plural_name": "Breweries", "icon": {"prefix": "https://ss3.4sqi.net/img/categories_v2/food/brewery_", "suffix": ".png"}}], "chains": [], "closed_bucket": "VeryLikelyOpen", "distance": 6698, "geocodes": {"drop_off": {"latitude": 39.998244, "longitude": -105.087888}, "main": {"latitude": 39.998399, "longitude": -105.087887}, "roof": {"latitude": 39.998399, "longitude": -105.087887}}, "link": "/v3/places/510d960ee4b0f2f1a7c893fe", "location": {"address": "301 E Simpson St", "census_block": "080130608022022", "country": "US", "cross_street": "S Gough Ave", "dma": "Denver", "formatted_address": "301 E Simpson St (S Gough Ave), Lafayette, CO 80026", "locality": "Lafayette", "postcode": "80026", "region": "CO"}, "name": "Odd13 Brewing", "related_places": {}, "timezone": "America/Denver"}, {"fsq_id": "4f878f4d0cd6ba7239e5f77f", "categories": [{"id": 13006, "name": "Beer Bar", "short_name": "Beer Bar", "plural_name": "Beer Bars", "icon": {"prefix": "https://ss3.4sqi.net/img/categories_v2/nightlife/pub_", "suffix": ".png"}}, {"id": 13029, "name": "Brewery", "short_name": "Brewery", "plural_name": "Breweries", "icon": {"prefix": "https://ss3.4sqi.net/img/categories_v2/food/brewery_", "suffix": ".png"}}], "chains": [], "closed_bucket": "VeryLikelyOpen", "distance": 5290, "geocodes": {"main": {"latitude": 39.976066, "longitude": -105.128462}, "roof": {"latitude": 39.976066, "longitude": -105.128462}}, "link": "/v3/places/4f878f4d0cd6ba7239e5f77f", "location": {"address": "1150 Pine St", "address_extended": "Unit B", "census_block": "080130130061000", "country": "US", "cross_street": "at Hwy 42", "dma": "Denver", "formatted_address": "1150 Pine St (at Hwy 42), Louisville, CO 80027", "locality": "Louisville", "postcode": "80027", "region": "CO"}, "name": "Gravity Brewing", "related_places": {"parent": {"fsq_id": "4d60121e149637049b29e094", "categories": [{"id": 12082, "name": "Organization", "short_name": "Organization", "plural_name": "Organizations", "icon": {"prefix": "https://ss3.4sqi.net/img/categories_v2/building/default_", "suffix": ".png"}}], "name": "American Legion"}, "children": []}, "timezone": "America/Denver"}, {"fsq_id": "52b8683711d2f861a0cd5685", "categories": [{"id": 13003, "name": "Bar", "short_name": "Bar", "plural_name": "Bars", "icon": {"prefix": "https://ss3.4sqi.net/img/categories_v2/nightlife/pub_", "suffix": ".png"}}, {"id": 13029, "name": "Brewery", "short_name": "Brewery", "plural_name": "Breweries", "icon": {"prefix": "https://ss3.4sqi.net/img/categories_v2/food/brewery_", "suffix": ".png"}}, {"id": 13068, "name": "American Restaurant", "short_name": "American", "plural_name": "American Restaurants", "icon": {"prefix": "https://ss3.4sqi.net/img/categories_v2/food/default_", "suffix": ".png"}}], "chains": [], "closed_bucket": "LikelyOpen", "distance": 6247, "geocodes": {"main": {"latitude": 39.994586, "longitude": -105.091374}, "roof": {"latitude": 39.994586, "longitude": -105.091374}}, "link": "/v3/places/52b8683711d2f861a0cd5685", "location": {"address": "105 W Emma St", "census_block": "080130129051030", "country": "US", "cross_street": "South Public Road", "dma": "Denver", "formatted_address": "105 W Emma St (South Public Road), Lafayette, CO 80026", "locality": "Lafayette", "postcode": "80026", "region": "CO"}, "name": "The Post Chicken & Beer", "related_places": {}, "timezone": "America/Denver"}, {"fsq_id": "51707f71498e196045c1eada", "categories": [{"id": 13025, "name": "Wine Bar", "short_name": "Wine Bar", "plural_name": "Wine Bars", "icon": {"prefix": "https://ss3.4sqi.net/img/categories_v2/food/winery_", "suffix": ".png"}}, {"id": 13029, "name": "Brewery", "short_name": "Brewery", "plural_name": "Breweries", "icon": {"prefix": "https://ss3.4sqi.net/img/categories_v2/food/brewery_", "suffix": ".png"}}, {"id": 13065, "name": "Restaurant", "short_name": "Restaurant", "plural_name": "Restaurants", "icon": {"prefix": "https://ss3.4sqi.net/img/categories_v2/food/default_", "suffix": ".png"}}], "chains": [], "closed_bucket": "VeryLikelyOpen", "distance": 14181, "geocodes": {"main": {"latitude": 40.019924, "longitude": -105.218179}, "roof": {"latitude": 40.019924, "longitude": -105.218179}}, "link": "/v3/places/51707f71498e196045c1eada", "location": {"address": "1898 S Flatiron Ct", "census_block": "080130127071037", "country": "US", "cross_street": "", "dma": "Denver", "formatted_address": "1898 S Flatiron Ct, Boulder, CO 80301", "locality": "Boulder", "postcode": "80301", "region": "CO"}, "name": "Upslope Brewing Company", "related_places": {"children": []}, "timezone": "America/Denver"}, {"fsq_id": "593c93988496ca7ada9bef43", "categories": [{"id": 13003, "name": "Bar", "short_name": "Bar", "plural_name": "Bars", "icon": {"prefix": "https://ss3.4sqi.net/img/categories_v2/nightlife/pub_", "suffix": ".png"}}, {"id": 13029, "name": "Brewery", "short_name": "Brewery", "plural_name": "Breweries", "icon": {"prefix": "https://ss3.4sqi.net/img/categories_v2/food/brewery_", "suffix": ".png"}}, {"id": 13065, "name": "Restaurant", "short_name": "Restaurant", "plural_name": "Restaurants", "icon": {"prefix": "https://ss3.4sqi.net/img/categories_v2/food/default_", "suffix": ".png"}}], "chains": [], "closed_bucket": "VeryLikelyOpen", "distance": 15209, "geocodes": {"main": {"latitude": 39.80154, "longitude": -105.081086}, "roof": {"latitude": 39.80154, "longitude": -105.081086}}, "link": "/v3/places/593c93988496ca7ada9bef43", "location": {"address": "5768 Olde Wadsworth Blvd", "census_block": "080590104052002", "country": "US", "cross_street": "", "dma": "Denver", "formatted_address": "5768 Olde Wadsworth Blvd, Arvada, CO 80002", "locality": "Arvada", "postcode": "80002", "region": "CO"}, "name": "Denver Beer Co.", "related_places": {"children": [{"fsq_id": "610df1e5eef5d22a9162dc2e", "categories": [{"id": 13031, "name": "Burger Joint", "short_name": "Burgers", "plural_name": "Burger Joints", "icon": {"prefix": "https://ss3.4sqi.net/img/categories_v2/food/burger_", "suffix": ".png"}}, {"id": 13068, "name": "American Restaurant", "short_name": "American", "plural_name": "American Restaurants", "icon": {"prefix": "https://ss3.4sqi.net/img/categories_v2/food/default_", "suffix": ".png"}}], "name": "The Mighty"}]}, "timezone": "America/Denver"}, {"fsq_id": "51ca3d1c498e1649345c88ec", "categories": [{"id": 13003, "name": "Bar", "short_name": "Bar", "plural_name": "Bars", "icon": {"prefix": "https://ss3.4sqi.net/img/categories_v2/nightlife/pub_", "suffix": ".png"}}, {"id": 13029, "name": "Brewery", "short_name": "Brewery", "plural_name": "Breweries", "icon": {"prefix": "https://ss3.4sqi.net/img/categories_v2/food/brewery_", "suffix": ".png"}}, {"id": 13064, "name": "Pizzeria", "short_name": "Pizza", "plural_name": "Pizzerias", "icon": {"prefix": "https://ss3.4sqi.net/img/categories_v2/food/pizza_", "suffix": ".png"}}], "chains": [], "closed_bucket": "Unsure", "distance": 5652, "geocodes": {"main": {"latitude": 39.978334, "longitude": -105.131899}, "roof": {"latitude": 39.978334, "longitude": -105.131899}}, "link": "/v3/places/51ca3d1c498e1649345c88ec", "location": {"address": "820 Main St", "census_block": "080130130051020", "country": "US", "cross_street": "Pine", "dma": "Denver", "formatted_address": "820 Main St (Pine), Louisville, CO 80027", "locality": "Louisville", "postcode": "80027", "region": "CO"}, "name": "12 Degree Brewing", "related_places": {}, "timezone": "America/Denver"}, {"fsq_id": "532612ef498ea4799a6000f3", "categories": [{"id": 13029, "name": "Brewery", "short_name": "Brewery", "plural_name": "Breweries", "icon": {"prefix": "https://ss3.4sqi.net/img/categories_v2/food/brewery_", "suffix": ".png"}}, {"id": 13000, "name": "Dining and Drinking", "short_name": "Dining and Drinking", "plural_name": "Dining and Drinking", "icon": {"prefix": "https://ss3.4sqi.net/img/categories_v2/food/default_", "suffix": ".png"}}], "chains": [], "closed_bucket": "Unsure", "distance": 16859, "geocodes": {"main": {"latitude": 40.062537, "longitude": -105.204892}, "roof": {"latitude": 40.062537, "longitude": -105.204892}}, "link": "/v3/places/532612ef498ea4799a6000f3", "location": {"address": "4910 Nautilus Ct N", "census_block": "080130127051006", "country": "US", "cross_street": "63rd Street", "dma": "Denver", "formatted_address": "4910 Nautilus Ct N (63rd Street), Boulder, CO 80301", "locality": "Boulder", "postcode": "80301", "region": "CO"}, "name": "Avery Brewing Company", "related_places": {"children": []}, "timezone": "America/Denver"}, {"fsq_id": "5a31e558f0ca9536bf27745f", "categories": [{"id": 13006, "name": "Beer Bar", "short_name": "Beer Bar", "plural_name": "Beer Bars", "icon": {"prefix": "https://ss3.4sqi.net/img/categories_v2/nightlife/pub_", "suffix": ".png"}}, {"id": 13029, "name": "Brewery", "short_name": "Brewery", "plural_name": "Breweries", "icon": {"prefix": "https://ss3.4sqi.net/img/categories_v2/food/brewery_", "suffix": ".png"}}, {"id": 13065, "name": "Restaurant", "short_name": "Restaurant", "plural_name": "Restaurants", "icon": {"prefix": "https://ss3.4sqi.net/img/categories_v2/food/default_", "suffix": ".png"}}], "chains": [], "closed_bucket": "VeryLikelyOpen", "distance": 5459, "geocodes": {"drop_off": {"latitude": 39.976036, "longitude": -105.132128}, "main": {"latitude": 39.976039, "longitude": -105.131841}, "roof": {"latitude": 39.976039, "longitude": -105.131841}}, "link": "/v3/places/5a31e558f0ca9536bf27745f", "location": {"address": "604 Main St", "census_block": "080130130061004", "country": "US", "cross_street": "Elms St", "dma": "Denver", "formatted_address": "604 Main St (Elms St), Louisville, CO 80027", "locality": "Louisville", "postcode": "80027", "region": "CO"}, "name": "Crystal Springs Brewing Company", "related_places": {}, "timezone": "America/Denver"}, {"fsq_id": "56fd89be498e70d9b3863349", "categories": [{"id": 13007, "name": "Beer Garden", "short_name": "Beer Garden", "plural_name": "Beer Gardens", "icon": {"prefix": "https://ss3.4sqi.net/img/categories_v2/nightlife/beergarden_", "suffix": ".png"}}, {"id": 13029, "name": "Brewery", "short_name": "Brewery", "plural_name": "Breweries", "icon": {"prefix": "https://ss3.4sqi.net/img/categories_v2/food/brewery_", "suffix": ".png"}}], "chains": [], "closed_bucket": "VeryLikelyOpen", "distance": 15145, "geocodes": {"main": {"latitude": 39.818146, "longitude": -105.007342}, "roof": {"latitude": 39.818146, "longitude": -105.007342}}, "link": "/v3/places/56fd89be498e70d9b3863349", "location": {"address": "1675 W 67th Ave", "address_extended": "Ste 100", "census_block": "080010095023000", "country": "US", "cross_street": "Pecos", "dma": "Denver", "formatted_address": "1675 W 67th Ave (Pecos), Denver, CO 80221", "locality": "Denver", "postcode": "80221", "region": "CO"}, "name": "Bruz Beers", "related_places": {}, "timezone": "America/Denver"}, {"fsq_id": "57ec105c498eca3ded5ca44f", "categories": [{"id": 13006, "name": "Beer Bar", "short_name": "Beer Bar", "plural_name": "Beer Bars", "icon": {"prefix": "https://ss3.4sqi.net/img/categories_v2/nightlife/pub_", "suffix": ".png"}}, {"id": 13029, "name": "Brewery", "short_name": "Brewery", "plural_name": "Breweries", "icon": {"prefix": "https://ss3.4sqi.net/img/categories_v2/food/brewery_", "suffix": ".png"}}, {"id": 13065, "name": "Restaurant", "short_name": "Restaurant", "plural_name": "Restaurants", "icon": {"prefix": "https://ss3.4sqi.net/img/categories_v2/food/default_", "suffix": ".png"}}], "chains": [], "closed_bucket": "VeryLikelyOpen", "distance": 19409, "geocodes": {"main": {"latitude": 39.779647, "longitude": -105.186165}, "roof": {"latitude": 39.779647, "longitude": -105.186165}}, "link": "/v3/places/57ec105c498eca3ded5ca44f", "location": {"address": "16401 Table Mountain Pkwy", "census_block": "080590098421014", "country": "US", "cross_street": "", "dma": "Denver", "formatted_address": "16401 Table Mountain Pkwy, Golden, CO 80403", "locality": "Golden", "postcode": "80403", "region": "CO"}, "name": "New Terrain Brewing Company", "related_places": {}, "timezone": "America/Denver"}, {"fsq_id": "50d52479e4b06bd2dce933f8", "categories": [{"id": 13314, "name": "New American Restaurant", "short_name": "New American", "plural_name": "New American Restaurants", "icon": {"prefix": "https://ss3.4sqi.net/img/categories_v2/food/newamerican_", "suffix": ".png"}}, {"id": 13029, "name": "Brewery", "short_name": "Brewery", "plural_name": "Breweries", "icon": {"prefix": "https://ss3.4sqi.net/img/categories_v2/food/brewery_", "suffix": ".png"}}, {"id": 13064, "name": "Pizzeria", "short_name": "Pizza", "plural_name": "Pizzerias", "icon": {"prefix": "https://ss3.4sqi.net/img/categories_v2/food/pizza_", "suffix": ".png"}}], "chains": [], "closed_bucket": "Unsure", "distance": 14436, "geocodes": {"main": {"latitude": 39.984282, "longitude": -105.249426}, "roof": {"latitude": 39.984282, "longitude": -105.249426}}, "link": "/v3/places/50d52479e4b06bd2dce933f8", "location": {"address": "627 S Broadway St", "address_extended": "Ste A", "census_block": "080130125091002", "country": "US", "cross_street": "btwn Table Mesa & S 40th", "dma": "Denver", "formatted_address": "627 S Broadway St (btwn Table Mesa & S 40th), Boulder, CO 80305", "locality": "Boulder", "postcode": "80305", "region": "CO"}, "name": "Under The Sun Eatery & Pizzeria", "related_places": {}, "timezone": "America/Denver"}, {"fsq_id": "518f009f498e50c4591fe027", "categories": [{"id": 13006, "name": "Beer Bar", "short_name": "Beer Bar", "plural_name": "Beer Bars", "icon": {"prefix": "https://ss3.4sqi.net/img/categories_v2/nightlife/pub_", "suffix": ".png"}}, {"id": 13029, "name": "Brewery", "short_name": "Brewery", "plural_name": "Breweries", "icon": {"prefix": "https://ss3.4sqi.net/img/categories_v2/food/brewery_", "suffix": ".png"}}], "chains": [], "closed_bucket": "LikelyOpen", "distance": 16206, "geocodes": {"main": {"latitude": 40.022103, "longitude": -105.248036}, "roof": {"latitude": 40.022103, "longitude": -105.248036}}, "link": "/v3/places/518f009f498e50c4591fe027", "location": {"address": "3550 Frontier Ave", "address_extended": "Ste A", "census_block": "080130122082009", "country": "US", "cross_street": "", "dma": "Denver", "formatted_address": "3550 Frontier Ave, Boulder, CO 80301", "locality": "Boulder", "postcode": "80301", "region": "CO"}, "name": "Sanitas Brewing Company", "related_places": {"children": [{"fsq_id": "611be94454ff0843f11ec28f", "categories": [{"id": 13035, "name": "Coffee Shop", "short_name": "Coffee Shop", "plural_name": "Coffee Shops", "icon": {"prefix": "https://ss3.4sqi.net/img/categories_v2/food/coffeeshop_", "suffix": ".png"}}, {"id": 13065, "name": "Restaurant", "short_name": "Restaurant", "plural_name": "Restaurants", "icon": {"prefix": "https://ss3.4sqi.net/img/categories_v2/food/default_", "suffix": ".png"}}], "name": "Bona Coffee Roasters"}]}, "timezone": "America/Denver"}, {"fsq_id": "56f5c4da498e706cc1987958", "categories": [{"id": 13003, "name": "Bar", "short_name": "Bar", "plural_name": "Bars", "icon": {"prefix": "https://ss3.4sqi.net/img/categories_v2/nightlife/pub_", "suffix": ".png"}}, {"id": 13029, "name": "Brewery", "short_name": "Brewery", "plural_name": "Breweries", "icon": {"prefix": "https://ss3.4sqi.net/img/categories_v2/food/brewery_", "suffix": ".png"}}, {"id": 13065, "name": "Restaurant", "short_name": "Restaurant", "plural_name": "Restaurants", "icon": {"prefix": "https://ss3.4sqi.net/img/categories_v2/food/default_", "suffix": ".png"}}], "chains": [], "closed_bucket": "VeryLikelyOpen", "distance": 17475, "geocodes": {"main": {"latitude": 39.806572, "longitude": -104.979046}, "roof": {"latitude": 39.806572, "longitude": -104.979046}}, "link": "/v3/places/56f5c4da498e706cc1987958", "location": {"address": "6021 Washington St", "address_extended": "Unit A", "census_block": "080010150003006", "country": "US", "cross_street": "", "dma": "Denver", "formatted_address": "6021 Washington St, Denver, CO 80216", "locality": "Denver", "postcode": "80216", "region": "CO"}, "name": "River North Brewery", "related_places": {}, "timezone": "America/Denver"}, {"fsq_id": "557c84fb498e8dd042b88d97", "categories": [{"id": 13006, "name": "Beer Bar", "short_name": "Beer Bar", "plural_name": "Beer Bars", "icon": {"prefix": "https://ss3.4sqi.net/img/categories_v2/nightlife/pub_", "suffix": ".png"}}, {"id": 13029, "name": "Brewery", "short_name": "Brewery", "plural_name": "Breweries", "icon": {"prefix": "https://ss3.4sqi.net/img/categories_v2/food/brewery_", "suffix": ".png"}}, {"id": 13065, "name": "Restaurant", "short_name": "Restaurant", "plural_name": "Restaurants", "icon": {"prefix": "https://ss3.4sqi.net/img/categories_v2/food/default_", "suffix": ".png"}}], "chains": [], "closed_bucket": "LikelyOpen", "distance": 20952, "geocodes": {"main": {"latitude": 39.770364, "longitude": -104.979275}, "roof": {"latitude": 39.770364, "longitude": -104.979275}}, "link": "/v3/places/557c84fb498e8dd042b88d97", "location": {"address": "1812 35th St", "census_block": "080310016013007", "country": "US", "cross_street": "Brighton Blvd.", "dma": "Denver", "formatted_address": "1812 35th St (Brighton Blvd.), Denver, CO 80216", "locality": "Denver", "postcode": "80216", "region": "CO"}, "name": "Great Divide Barrel Bar", "related_places": {}, "timezone": "America/Denver"}, {"fsq_id": "553f9b5f498e1e1fe7f4adb7", "categories": [{"id": 13006, "name": "Beer Bar", "short_name": "Beer Bar", "plural_name": "Beer Bars", "icon": {"prefix": "https://ss3.4sqi.net/img/categories_v2/nightlife/pub_", "suffix": ".png"}}, {"id": 13029, "name": "Brewery", "short_name": "Brewery", "plural_name": "Breweries", "icon": {"prefix": "https://ss3.4sqi.net/img/categories_v2/food/brewery_", "suffix": ".png"}}, {"id": 13065, "name": "Restaurant", "short_name": "Restaurant", "plural_name": "Restaurants", "icon": {"prefix": "https://ss3.4sqi.net/img/categories_v2/food/default_", "suffix": ".png"}}], "chains": [], "closed_bucket": "LikelyOpen", "distance": 21963, "geocodes": {"drop_off": {"latitude": 39.747356, "longitude": -105.024347}, "main": {"latitude": 39.747388, "longitude": -105.024362}, "roof": {"latitude": 39.747388, "longitude": -105.024362}}, "link": "/v3/places/553f9b5f498e1e1fe7f4adb7", "location": {"address": "2924 W 20th Ave", "census_block": "080310006002007", "country": "US", "cross_street": "btwn Federal Blvd & Mile High Stadium Cir", "dma": "Denver", "formatted_address": "2924 W 20th Ave (btwn Federal Blvd & Mile High Stadium Cir), Denver, CO 80211", "locality": "Denver", "postcode": "80211", "region": "CO"}, "name": "Little Machine Beer", "related_places": {}, "timezone": "America/Denver"}, {"fsq_id": "5c145b92e1f0aa002c56451e", "categories": [{"id": 13006, "name": "Beer Bar", "short_name": "Beer Bar", "plural_name": "Beer Bars", "icon": {"prefix": "https://ss3.4sqi.net/img/categories_v2/nightlife/pub_", "suffix": ".png"}}, {"id": 13029, "name": "Brewery", "short_name": "Brewery", "plural_name": "Breweries", "icon": {"prefix": "https://ss3.4sqi.net/img/categories_v2/food/brewery_", "suffix": ".png"}}, {"id": 13065, "name": "Restaurant", "short_name": "Restaurant", "plural_name": "Restaurants", "icon": {"prefix": "https://ss3.4sqi.net/img/categories_v2/food/default_", "suffix": ".png"}}], "chains": [], "closed_bucket": "VeryLikelyOpen", "distance": 6889, "geocodes": {"main": {"latitude": 39.999949, "longitude": -105.099307}, "roof": {"latitude": 39.999949, "longitude": -105.099307}}, "link": "/v3/places/5c145b92e1f0aa002c56451e", "location": {"address": "778 W Baseline Rd", "census_block": "080130129051002", "country": "US", "cross_street": "", "dma": "Denver", "formatted_address": "778 W Baseline Rd, Lafayette, CO 80026", "locality": "Lafayette", "postcode": "80026", "region": "CO"}, "name": "Cellar West Artisan Ales", "related_places": {}, "timezone": "America/Denver"}, {"fsq_id": "540e0954498e77f0f9129eb5", "categories": [{"id": 13029, "name": "Brewery", "short_name": "Brewery", "plural_name": "Breweries", "icon": {"prefix": "https://ss3.4sqi.net/img/categories_v2/food/brewery_", "suffix": ".png"}}, {"id": 13031, "name": "Burger Joint", "short_name": "Burgers", "plural_name": "Burger Joints", "icon": {"prefix": "https://ss3.4sqi.net/img/categories_v2/food/burger_", "suffix": ".png"}}, {"id": 13068, "name": "American Restaurant", "short_name": "American", "plural_name": "American Restaurants", "icon": {"prefix": "https://ss3.4sqi.net/img/categories_v2/food/default_", "suffix": ".png"}}], "chains": [], "closed_bucket": "LikelyOpen", "distance": 22626, "geocodes": {"main": {"latitude": 39.745476, "longitude": -105.006123}, "roof": {"latitude": 39.745476, "longitude": -105.006123}}, "link": "/v3/places/540e0954498e77f0f9129eb5", "location": {"address": "900 Auraria Pkwy", "address_extended": "Unit 240", "census_block": "080319802001026", "country": "US", "cross_street": "10th St", "dma": "Denver", "formatted_address": "900 Auraria Pkwy (10th St), Denver, CO 80204", "locality": "Denver", "postcode": "80204", "region": "CO"}, "name": "Tivoli Brewery", "related_places": {"parent": {"fsq_id": "4afdbc57f964a520612a22e3", "categories": [{"id": 12047, "name": "Student Center", "short_name": "Student Center", "plural_name": "Student Centers", "icon": {"prefix": "https://ss3.4sqi.net/img/categories_v2/education/studentcenter_", "suffix": ".png"}}], "name": "Tivoli Student Union"}}, "timezone": "America/Denver"}, {"fsq_id": "54c40b11498e782c170c0f8e", "categories": [{"id": 13006, "name": "Beer Bar", "short_name": "Beer Bar", "plural_name": "Beer Bars", "icon": {"prefix": "https://ss3.4sqi.net/img/categories_v2/nightlife/pub_", "suffix": ".png"}}, {"id": 13029, "name": "Brewery", "short_name": "Brewery", "plural_name": "Breweries", "icon": {"prefix": "https://ss3.4sqi.net/img/categories_v2/food/brewery_", "suffix": ".png"}}, {"id": 13065, "name": "Restaurant", "short_name": "Restaurant", "plural_name": "Restaurants", "icon": {"prefix": "https://ss3.4sqi.net/img/categories_v2/food/default_", "suffix": ".png"}}], "chains": [], "closed_bucket": "LikelyOpen", "distance": 21754, "geocodes": {"drop_off": {"latitude": 39.761794, "longitude": -104.981167}, "main": {"latitude": 39.761672, "longitude": -104.981072}, "roof": {"latitude": 39.761672, "longitude": -104.981072}}, "link": "/v3/places/54c40b11498e782c170c0f8e", "location": {"address": "2920 Larimer St", "census_block": "080310016033000", "country": "US", "cross_street": "29th St.", "dma": "Denver", "formatted_address": "2920 Larimer St (29th St.), Denver, CO 80205", "locality": "Denver", "postcode": "80205", "region": "CO"}, "name": "Ratio Beerworks", "related_places": {}, "timezone": "America/Denver"}, {"fsq_id": "4ad8fc78f964a520c81621e3", "categories": [{"id": 13029, "name": "Brewery", "short_name": "Brewery", "plural_name": "Breweries", "icon": {"prefix": "https://ss3.4sqi.net/img/categories_v2/food/brewery_", "suffix": ".png"}}, {"id": 13064, "name": "Pizzeria", "short_name": "Pizza", "plural_name": "Pizzerias", "icon": {"prefix": "https://ss3.4sqi.net/img/categories_v2/food/pizza_", "suffix": ".png"}}], "chains": [], "closed_bucket": "VeryLikelyOpen", "distance": 23328, "geocodes": {"main": {"latitude": 39.754651, "longitude": -105.223545}, "roof": {"latitude": 39.754651, "longitude": -105.223545}}, "link": "/v3/places/4ad8fc78f964a520c81621e3", "location": {"address": "920 12th St", "census_block": "080590099011007", "country": "US", "cross_street": "at Cheyenne St.", "dma": "Denver", "formatted_address": "920 12th St (at Cheyenne St.), Golden, CO 80401", "locality": "Golden", "postcode": "80401", "region": "CO"}, "name": "Golden City Brewery", "related_places": {}, "timezone": "America/Denver"}, {"fsq_id": "56e0aee5cd10e7f8b58203be", "categories": [{"id": 13016, "name": "Lounge", "short_name": "Lounge", "plural_name": "Lounges", "icon": {"prefix": "https://ss3.4sqi.net/img/categories_v2/nightlife/default_", "suffix": ".png"}}, {"id": 13029, "name": "Brewery", "short_name": "Brewery", "plural_name": "Breweries", "icon": {"prefix": "https://ss3.4sqi.net/img/categories_v2/food/brewery_", "suffix": ".png"}}, {"id": 13057, "name": "Gastropub", "short_name": "Gastropub", "plural_name": "Gastropubs", "icon": {"prefix": "https://ss3.4sqi.net/img/categories_v2/food/gastropub_", "suffix": ".png"}}], "chains": [], "closed_bucket": "LikelyOpen", "distance": 15410, "geocodes": {"drop_off": {"latitude": 39.799531, "longitude": -105.082609}, "main": {"latitude": 39.799533, "longitude": -105.082377}, "roof": {"latitude": 39.799533, "longitude": -105.082377}}, "link": "/v3/places/56e0aee5cd10e7f8b58203be", "location": {"address": "9505 W 44th Ave", "census_block": "080590104052006", "country": "US", "cross_street": "", "dma": "Denver", "formatted_address": "9505 W 44th Ave, Arvada, CO 80033", "locality": "Arvada", "postcode": "80033", "region": "CO"}, "name": "New Image Brewing", "related_places": {}, "timezone": "America/Denver"}, {"fsq_id": "4b9e9835f964a52062f236e3", "categories": [{"id": 13006, "name": "Beer Bar", "short_name": "Beer Bar", "plural_name": "Beer Bars", "icon": {"prefix": "https://ss3.4sqi.net/img/categories_v2/nightlife/pub_", "suffix": ".png"}}, {"id": 13029, "name": "Brewery", "short_name": "Brewery", "plural_name": "Breweries", "icon": {"prefix": "https://ss3.4sqi.net/img/categories_v2/food/brewery_", "suffix": ".png"}}, {"id": 13065, "name": "Restaurant", "short_name": "Restaurant", "plural_name": "Restaurants", "icon": {"prefix": "https://ss3.4sqi.net/img/categories_v2/food/default_", "suffix": ".png"}}], "chains": [], "closed_bucket": "LikelyOpen", "distance": 22311, "geocodes": {"drop_off": {"latitude": 39.753585, "longitude": -104.988588}, "main": {"latitude": 39.753767, "longitude": -104.988448}, "roof": {"latitude": 39.753767, "longitude": -104.988448}}, "link": "/v3/places/4b9e9835f964a52062f236e3", "location": {"address": "2201 Arapahoe St", "census_block": "080310016035007", "country": "US", "cross_street": "at 22nd St", "dma": "Denver", "formatted_address": "2201 Arapahoe St (at 22nd St), Denver, CO 80205", "locality": "Denver", "postcode": "80205", "region": "CO"}, "name": "Great Divide Brewing Co.", "related_places": {}, "timezone": "America/Denver"}, {"fsq_id": "5edc0876a93f0c0008a83e29", "categories": [{"id": 13003, "name": "Bar", "short_name": "Bar", "plural_name": "Bars", "icon": {"prefix": "https://ss3.4sqi.net/img/categories_v2/nightlife/pub_", "suffix": ".png"}}, {"id": 13029, "name": "Brewery", "short_name": "Brewery", "plural_name": "Breweries", "icon": {"prefix": "https://ss3.4sqi.net/img/categories_v2/food/brewery_", "suffix": ".png"}}], "chains": [], "closed_bucket": "VeryLikelyOpen", "distance": 14331, "geocodes": {"main": {"latitude": 40.021658, "longitude": -105.219143}, "roof": {"latitude": 40.021658, "longitude": -105.219143}}, "link": "/v3/places/5edc0876a93f0c0008a83e29", "location": {"address": "2209 Central Ave", "census_block": "080130127071038", "country": "US", "cross_street": "", "dma": "Denver", "formatted_address": "2209 Central Ave, Boulder, CO 80301", "locality": "Boulder", "postcode": "80301", "region": "CO"}, "name": "Wild Provisions Beer Project", "related_places": {}, "timezone": "America/Denver"}, {"fsq_id": "5ae76e5586bc490039f7089b", "categories": [{"id": 13007, "name": "Beer Garden", "short_name": "Beer Garden", "plural_name": "Beer Gardens", "icon": {"prefix": "https://ss3.4sqi.net/img/categories_v2/nightlife/beergarden_", "suffix": ".png"}}, {"id": 13029, "name": "Brewery", "short_name": "Brewery", "plural_name": "Breweries", "icon": {"prefix": "https://ss3.4sqi.net/img/categories_v2/food/brewery_", "suffix": ".png"}}], "chains": [], "closed_bucket": "Unsure", "distance": 21698, "geocodes": {"main": {"latitude": 39.762268, "longitude": -104.98116}, "roof": {"latitude": 39.762268, "longitude": -104.98116}}, "link": "/v3/places/5ae76e5586bc490039f7089b", "location": {"address": "2945 Larimer St", "census_block": "080310016032001", "country": "US", "cross_street": "", "dma": "Denver", "formatted_address": "2945 Larimer St, Denver, CO 80205", "locality": "Denver", "postcode": "80205", "region": "CO"}, "name": "Odell Brewing Company", "related_places": {}, "timezone": "America/Denver"}, {"fsq_id": "527e84dc498e05d392436ac9", "categories": [{"id": 13003, "name": "Bar", "short_name": "Bar", "plural_name": "Bars", "icon": {"prefix": "https://ss3.4sqi.net/img/categories_v2/nightlife/pub_", "suffix": ".png"}}, {"id": 13029, "name": "Brewery", "short_name": "Brewery", "plural_name": "Breweries", "icon": {"prefix": "https://ss3.4sqi.net/img/categories_v2/food/brewery_", "suffix": ".png"}}, {"id": 13065, "name": "Restaurant", "short_name": "Restaurant", "plural_name": "Restaurants", "icon": {"prefix": "https://ss3.4sqi.net/img/categories_v2/food/default_", "suffix": ".png"}}], "chains": [], "closed_bucket": "LikelyOpen", "distance": 24515, "geocodes": {"main": {"latitude": 39.769628, "longitude": -104.905929}, "roof": {"latitude": 39.769628, "longitude": -104.905929}}, "link": "/v3/places/527e84dc498e05d392436ac9", "location": {"address": "7045 E 38th Ave", "census_block": "080310041021034", "country": "US", "cross_street": "", "dma": "Denver", "formatted_address": "7045 E 38th Ave, Denver, CO 80207", "locality": "Denver", "postcode": "80207", "region": "CO"}, "name": "Station 26 Brewing Co.", "related_places": {}, "timezone": "America/Denver"}, {"fsq_id": "40e0b100f964a520a5031fe3", "categories": [{"id": 13003, "name": "Bar", "short_name": "Bar", "plural_name": "Bars", "icon": {"prefix": "https://ss3.4sqi.net/img/categories_v2/nightlife/pub_", "suffix": ".png"}}, {"id": 13029, "name": "Brewery", "short_name": "Brewery", "plural_name": "Breweries", "icon": {"prefix": "https://ss3.4sqi.net/img/categories_v2/food/brewery_", "suffix": ".png"}}], "chains": [], "closed_bucket": "LikelyOpen", "distance": 24582, "geocodes": {"main": {"latitude": 40.15851, "longitude": -105.115461}, "roof": {"latitude": 40.15851, "longitude": -105.115461}}, "link": "/v3/places/40e0b100f964a520a5031fe3", "location": {"address": "1265 Boston Ave", "census_block": "080130133023026", "country": "US", "cross_street": "at Sunset St.", "dma": "Denver", "formatted_address": "1265 Boston Ave (at Sunset St.), Longmont, CO 80501", "locality": "Longmont", "postcode": "80501", "region": "CO"}, "name": "Left Hand Brewing Company", "related_places": {"children": []}, "timezone": "America/Denver"}, {"fsq_id": "4fa30ee8e4b01ab96b38c775", "categories": [{"id": 13006, "name": "Beer Bar", "short_name": "Beer Bar", "plural_name": "Beer Bars", "icon": {"prefix": "https://ss3.4sqi.net/img/categories_v2/nightlife/pub_", "suffix": ".png"}}, {"id": 13029, "name": "Brewery", "short_name": "Brewery", "plural_name": "Breweries", "icon": {"prefix": "https://ss3.4sqi.net/img/categories_v2/food/brewery_", "suffix": ".png"}}, {"id": 13065, "name": "Restaurant", "short_name": "Restaurant", "plural_name": "Restaurants", "icon": {"prefix": "https://ss3.4sqi.net/img/categories_v2/food/default_", "suffix": ".png"}}], "chains": [], "closed_bucket": "VeryLikelyOpen", "distance": 21791, "geocodes": {"main": {"latitude": 39.760494, "longitude": -104.982503}, "roof": {"latitude": 39.760494, "longitude": -104.982503}}, "link": "/v3/places/4fa30ee8e4b01ab96b38c775", "location": {"address": "2810 Larimer St", "census_block": "080310016033001", "country": "US", "dma": "Denver", "formatted_address": "2810 Larimer St, Denver, CO 80205", "locality": "Denver", "postcode": "80205", "region": "CO"}, "name": "Our Mutual Friend Malt & Brew", "related_places": {}, "timezone": "America/Denver"}, {"fsq_id": "4fb30bb7e4b0702bcf44a0ca", "categories": [{"id": 13029, "name": "Brewery", "short_name": "Brewery", "plural_name": "Breweries", "icon": {"prefix": "https://ss3.4sqi.net/img/categories_v2/food/brewery_", "suffix": ".png"}}, {"id": 13065, "name": "Restaurant", "short_name": "Restaurant", "plural_name": "Restaurants", "icon": {"prefix": "https://ss3.4sqi.net/img/categories_v2/food/default_", "suffix": ".png"}}], "chains": [], "closed_bucket": "LikelyOpen", "distance": 20373, "geocodes": {"main": {"latitude": 39.758189, "longitude": -105.045}, "roof": {"latitude": 39.758189, "longitude": -105.045}}, "link": "/v3/places/4fb30bb7e4b0702bcf44a0ca", "location": {"address": "4460 W 29th Ave", "census_block": "080310005011004", "country": "US", "cross_street": "W 29th Ave and Utica St", "dma": "Denver", "formatted_address": "4460 W 29th Ave (W 29th Ave and Utica St), Denver, CO 80212", "locality": "Denver", "postcode": "80212", "region": "CO"}, "name": "Hogshead Brewery", "related_places": {}, "timezone": "America/Denver"}, {"fsq_id": "4e1f4ec3aeb7fe88ace52ba6", "categories": [{"id": 13003, "name": "Bar", "short_name": "Bar", "plural_name": "Bars", "icon": {"prefix": "https://ss3.4sqi.net/img/categories_v2/nightlife/pub_", "suffix": ".png"}}, {"id": 13029, "name": "Brewery", "short_name": "Brewery", "plural_name": "Breweries", "icon": {"prefix": "https://ss3.4sqi.net/img/categories_v2/food/brewery_", "suffix": ".png"}}, {"id": 13065, "name": "Restaurant", "short_name": "Restaurant", "plural_name": "Restaurants", "icon": {"prefix": "https://ss3.4sqi.net/img/categories_v2/food/default_", "suffix": ".png"}}], "chains": [], "closed_bucket": "LikelyOpen", "distance": 21240, "geocodes": {"main": {"latitude": 39.758285, "longitude": -105.007322}, "roof": {"latitude": 39.758285, "longitude": -105.007322}}, "link": "/v3/places/4e1f4ec3aeb7fe88ace52ba6", "location": {"address": "1695 Platte St", "census_block": "080310011023012", "country": "US", "cross_street": "at 17th St", "dma": "Denver", "formatted_address": "1695 Platte St (at 17th St), Denver, CO 80202", "locality": "Denver", "postcode": "80202", "region": "CO"}, "name": "Denver Beer Co.", "related_places": {"children": []}, "timezone": "America/Denver"}, {"fsq_id": "556cc8b5498e009212f0a1e8", "categories": [{"id": 13029, "name": "Brewery", "short_name": "Brewery", "plural_name": "Breweries", "icon": {"prefix": "https://ss3.4sqi.net/img/categories_v2/food/brewery_", "suffix": ".png"}}], "chains": [], "closed_bucket": "VeryLikelyOpen", "distance": 24906, "geocodes": {"drop_off": {"latitude": 40.162338, "longitude": -105.099876}, "main": {"latitude": 40.162343, "longitude": -105.100129}, "roof": {"latitude": 40.162343, "longitude": -105.100129}}, "link": "/v3/places/556cc8b5498e009212f0a1e8", "location": {"address": "209 Emery St", "census_block": "080130134012019", "country": "US", "cross_street": "2nd", "dma": "Denver", "formatted_address": "209 Emery St (2nd), Longmont, CO 80501", "locality": "Longmont", "postcode": "80501", "region": "CO"}, "name": "Wibby Brewing Company", "related_places": {"children": [{"fsq_id": "6092f8b8e271114c082d0c82", "categories": [{"id": 11131, "name": "Outdoor Event Space", "short_name": "Outdoor Event Space", "plural_name": "Outdoor Event Spaces", "icon": {"prefix": "https://ss3.4sqi.net/img/categories_v2/building/eventspace_", "suffix": ".png"}}], "name": "Wibbytron Display"}]}, "timezone": "America/Denver"}, {"fsq_id": "5956b528f427de4e1b23a291", "categories": [{"id": 13006, "name": "Beer Bar", "short_name": "Beer Bar", "plural_name": "Beer Bars", "icon": {"prefix": "https://ss3.4sqi.net/img/categories_v2/nightlife/pub_", "suffix": ".png"}}, {"id": 13029, "name": "Brewery", "short_name": "Brewery", "plural_name": "Breweries", "icon": {"prefix": "https://ss3.4sqi.net/img/categories_v2/food/brewery_", "suffix": ".png"}}, {"id": 13065, "name": "Restaurant", "short_name": "Restaurant", "plural_name": "Restaurants", "icon": {"prefix": "https://ss3.4sqi.net/img/categories_v2/food/default_", "suffix": ".png"}}], "chains": [], "closed_bucket": "Unsure", "distance": 22710, "geocodes": {"main": {"latitude": 39.750862, "longitude": -104.98448}, "roof": {"latitude": 39.750862, "longitude": -104.98448}}, "link": "/v3/places/5956b528f427de4e1b23a291", "location": {"address": "2210 California St", "census_block": "080310024052003", "country": "US", "cross_street": "", "dma": "Denver", "formatted_address": "2210 California St, Denver, CO 80205", "locality": "Denver", "postcode": "80205", "region": "CO"}, "name": "Woods Boss Brewing Company", "related_places": {}, "timezone": "America/Denver"}, {"fsq_id": "578bcb66498e943994037018", "categories": [{"id": 13003, "name": "Bar", "short_name": "Bar", "plural_name": "Bars", "icon": {"prefix": "https://ss3.4sqi.net/img/categories_v2/nightlife/pub_", "suffix": ".png"}}, {"id": 13029, "name": "Brewery", "short_name": "Brewery", "plural_name": "Breweries", "icon": {"prefix": "https://ss3.4sqi.net/img/categories_v2/food/brewery_", "suffix": ".png"}}, {"id": 13068, "name": "American Restaurant", "short_name": "American", "plural_name": "American Restaurants", "icon": {"prefix": "https://ss3.4sqi.net/img/categories_v2/food/default_", "suffix": ".png"}}], "chains": [], "closed_bucket": "VeryLikelyOpen", "distance": 20709, "geocodes": {"drop_off": {"latitude": 39.773455, "longitude": -104.978303}, "main": {"latitude": 39.77358, "longitude": -104.977007}, "roof": {"latitude": 39.77358, "longitude": -104.977007}}, "link": "/v3/places/578bcb66498e943994037018", "location": {"address": "3750 Chestnut Pl", "census_block": "080310016013003", "country": "US", "cross_street": "Delgany St", "dma": "Denver", "formatted_address": "3750 Chestnut Pl (Delgany St), Denver, CO 80216", "locality": "Denver", "postcode": "80216", "region": "CO"}, "name": "Blue Moon Brewing Company \u2013 RiNo District", "related_places": {}, "timezone": "America/Denver"}, {"fsq_id": "49dc4f0af964a5206e5f1fe3", "categories": [{"id": 13003, "name": "Bar", "short_name": "Bar", "plural_name": "Bars", "icon": {"prefix": "https://ss3.4sqi.net/img/categories_v2/nightlife/pub_", "suffix": ".png"}}, {"id": 13029, "name": "Brewery", "short_name": "Brewery", "plural_name": "Breweries", "icon": {"prefix": "https://ss3.4sqi.net/img/categories_v2/food/brewery_", "suffix": ".png"}}, {"id": 13064, "name": "Pizzeria", "short_name": "Pizza", "plural_name": "Pizzerias", "icon": {"prefix": "https://ss3.4sqi.net/img/categories_v2/food/pizza_", "suffix": ".png"}}], "chains": [], "closed_bucket": "LikelyOpen", "distance": 16414, "geocodes": {"main": {"latitude": 40.020715, "longitude": -105.25118}, "roof": {"latitude": 40.020715, "longitude": -105.25118}}, "link": "/v3/places/49dc4f0af964a5206e5f1fe3", "location": {"address": "3201 Walnut St", "address_extended": "Ste A", "census_block": "080130122081036", "country": "US", "cross_street": "32nd St.", "dma": "Denver", "formatted_address": "3201 Walnut St (32nd St.), Boulder, CO 80301", "locality": "Boulder", "postcode": "80301", "region": "CO"}, "name": "Twisted Pine Brewing Co.", "related_places": {}, "timezone": "America/Denver"}, {"fsq_id": "5c27eee8bcbf7a002cbe11fa", "categories": [{"id": 13006, "name": "Beer Bar", "short_name": "Beer Bar", "plural_name": "Beer Bars", "icon": {"prefix": "https://ss3.4sqi.net/img/categories_v2/nightlife/pub_", "suffix": ".png"}}, {"id": 13029, "name": "Brewery", "short_name": "Brewery", "plural_name": "Breweries", "icon": {"prefix": "https://ss3.4sqi.net/img/categories_v2/food/brewery_", "suffix": ".png"}}, {"id": 13065, "name": "Restaurant", "short_name": "Restaurant", "plural_name": "Restaurants", "icon": {"prefix": "https://ss3.4sqi.net/img/categories_v2/food/default_", "suffix": ".png"}}], "chains": [], "closed_bucket": "VeryLikelyOpen", "distance": 19145, "geocodes": {"main": {"latitude": 39.769653, "longitude": -105.044819}, "roof": {"latitude": 39.769653, "longitude": -105.044819}}, "link": "/v3/places/5c27eee8bcbf7a002cbe11fa", "location": {"address": "4499 W 38th Ave", "address_extended": "Unit 101", "census_block": "080310003014017", "country": "US", "cross_street": "at Utica", "dma": "Denver", "formatted_address": "4499 W 38th Ave (at Utica), Denver, CO 80212", "locality": "Denver", "postcode": "80212", "region": "CO"}, "name": "Flyteco Brewing", "related_places": {"children": []}, "timezone": "America/Denver"}, {"fsq_id": "4b4e1598f964a520fde026e3", "categories": [{"id": 13003, "name": "Bar", "short_name": "Bar", "plural_name": "Bars", "icon": {"prefix": "https://ss3.4sqi.net/img/categories_v2/nightlife/pub_", "suffix": ".png"}}, {"id": 13029, "name": "Brewery", "short_name": "Brewery", "plural_name": "Breweries", "icon": {"prefix": "https://ss3.4sqi.net/img/categories_v2/food/brewery_", "suffix": ".png"}}, {"id": 13068, "name": "American Restaurant", "short_name": "American", "plural_name": "American Restaurants", "icon": {"prefix": "https://ss3.4sqi.net/img/categories_v2/food/default_", "suffix": ".png"}}], "chains": [{"id": "719a968e-22af-44eb-bb5a-c343167f9eef", "name": "Gordon Biersch Brewery Restaurant"}], "closed_bucket": "LikelyOpen", "distance": 3860, "geocodes": {"drop_off": {"latitude": 39.930611, "longitude": -105.135311}, "main": {"latitude": 39.930623, "longitude": -105.135325}, "roof": {"latitude": 39.930623, "longitude": -105.135325}}, "link": "/v3/places/4b4e1598f964a520fde026e3", "location": {"address": "1 W Flatiron Crossing Dr", "address_extended": "Ste 428", "census_block": "080140311022002", "country": "US", "dma": "Denver", "formatted_address": "1 W Flatiron Crossing Dr, Broomfield, CO 80021", "locality": "Broomfield", "postcode": "80021", "region": "CO"}, "name": "Gordon Biersch Brewery Restaurant", "related_places": {"parent": {"fsq_id": "49fdff57f964a520566f1fe3", "categories": [{"id": 17114, "name": "Shopping Mall", "short_name": "Mall", "plural_name": "Shopping Malls", "icon": {"prefix": "https://ss3.4sqi.net/img/categories_v2/shops/mall_", "suffix": ".png"}}], "name": "ZAGG FlatIron Crossing"}}, "timezone": "America/Denver"}, {"fsq_id": "52acaf29498e65c52a233212", "categories": [{"id": 13003, "name": "Bar", "short_name": "Bar", "plural_name": "Bars", "icon": {"prefix": "https://ss3.4sqi.net/img/categories_v2/nightlife/pub_", "suffix": ".png"}}, {"id": 13029, "name": "Brewery", "short_name": "Brewery", "plural_name": "Breweries", "icon": {"prefix": "https://ss3.4sqi.net/img/categories_v2/food/brewery_", "suffix": ".png"}}, {"id": 13068, "name": "American Restaurant", "short_name": "American", "plural_name": "American Restaurants", "icon": {"prefix": "https://ss3.4sqi.net/img/categories_v2/food/default_", "suffix": ".png"}}], "chains": [], "closed_bucket": "VeryLikelyOpen", "distance": 24650, "geocodes": {"main": {"latitude": 40.159868, "longitude": -105.101168}, "roof": {"latitude": 40.159868, "longitude": -105.101168}}, "link": "/v3/places/52acaf29498e65c52a233212", "location": {"address": "335 1st Ave", "address_extended": "Unit C", "census_block": "080130134012025", "country": "US", "cross_street": "Main", "dma": "Denver", "formatted_address": "335 1st Ave (Main), Longmont, CO 80501", "locality": "Longmont", "postcode": "80501", "region": "CO"}, "name": "300 Suns Brewing", "related_places": {}, "timezone": "America/Denver"}, {"fsq_id": "518bc440498ea1ec57d3753e", "categories": [{"id": 13003, "name": "Bar", "short_name": "Bar", "plural_name": "Bars", "icon": {"prefix": "https://ss3.4sqi.net/img/categories_v2/nightlife/pub_", "suffix": ".png"}}, {"id": 13029, "name": "Brewery", "short_name": "Brewery", "plural_name": "Breweries", "icon": {"prefix": "https://ss3.4sqi.net/img/categories_v2/food/brewery_", "suffix": ".png"}}, {"id": 13065, "name": "Restaurant", "short_name": "Restaurant", "plural_name": "Restaurants", "icon": {"prefix": "https://ss3.4sqi.net/img/categories_v2/food/default_", "suffix": ".png"}}], "chains": [], "closed_bucket": "LikelyOpen", "distance": 23002, "geocodes": {"main": {"latitude": 39.75811, "longitude": -105.224245}, "roof": {"latitude": 39.75811, "longitude": -105.224245}}, "link": "/v3/places/518bc440498ea1ec57d3753e", "location": {"address": "900 Washington Ave", "census_block": "080590098571012", "country": "US", "cross_street": "9th St.", "dma": "Denver", "formatted_address": "900 Washington Ave (9th St.), Golden, CO 80401", "locality": "Golden", "postcode": "80401", "region": "CO"}, "name": "Mountain Toad Brewing", "related_places": {"children": []}, "timezone": "America/Denver"}, {"fsq_id": "5238b84911d2b81d3be80b22", "categories": [{"id": 13003, "name": "Bar", "short_name": "Bar", "plural_name": "Bars", "icon": {"prefix": "https://ss3.4sqi.net/img/categories_v2/nightlife/pub_", "suffix": ".png"}}, {"id": 13029, "name": "Brewery", "short_name": "Brewery", "plural_name": "Breweries", "icon": {"prefix": "https://ss3.4sqi.net/img/categories_v2/food/brewery_", "suffix": ".png"}}, {"id": 13064, "name": "Pizzeria", "short_name": "Pizza", "plural_name": "Pizzerias", "icon": {"prefix": "https://ss3.4sqi.net/img/categories_v2/food/pizza_", "suffix": ".png"}}], "chains": [], "closed_bucket": "LikelyOpen", "distance": 24889, "geocodes": {"main": {"latitude": 39.729336, "longitude": -104.985695}, "roof": {"latitude": 39.729336, "longitude": -104.985695}}, "link": "/v3/places/5238b84911d2b81d3be80b22", "location": {"address": "800 N Lincoln St", "address_extended": "Unit 2", "census_block": "080310027061005", "country": "US", "cross_street": "8th Street", "dma": "Denver", "formatted_address": "800 N Lincoln St (8th Street), Denver, CO 80203", "locality": "Denver", "postcode": "80203", "region": "CO"}, "name": "Lowdown Brewery + Kitchen", "related_places": {}, "timezone": "America/Denver"}, {"fsq_id": "4b3d1152f964a520398d25e3", "categories": [{"id": 13024, "name": "Whisky Bar", "short_name": "Whisky Bar", "plural_name": "Whisky Bars", "icon": {"prefix": "https://ss3.4sqi.net/img/categories_v2/nightlife/whiskey_", "suffix": ".png"}}, {"id": 13029, "name": "Brewery", "short_name": "Brewery", "plural_name": "Breweries", "icon": {"prefix": "https://ss3.4sqi.net/img/categories_v2/food/brewery_", "suffix": ".png"}}, {"id": 13050, "name": "Distillery", "short_name": "Distillery", "plural_name": "Distilleries", "icon": {"prefix": "https://ss3.4sqi.net/img/categories_v2/food/brewery_", "suffix": ".png"}}], "chains": [], "closed_bucket": "VeryLikelyOpen", "distance": 26320, "geocodes": {"main": {"latitude": 39.712507, "longitude": -104.998638}, "roof": {"latitude": 39.712507, "longitude": -104.998638}}, "link": "/v3/places/4b3d1152f964a520398d25e3", "location": {"address": "200 S Kalamath St", "census_block": "080310021021028", "country": "US", "cross_street": "W Byers Pl", "dma": "Denver", "formatted_address": "200 S Kalamath St (W Byers Pl), Denver, CO 80223", "locality": "Denver", "postcode": "80223", "region": "CO"}, "name": "Stranahan's Colorado Whiskey", "related_places": {}, "timezone": "America/Denver"}, {"fsq_id": "53c1d4ea498e3a62e89b5da4", "categories": [{"id": 13029, "name": "Brewery", "short_name": "Brewery", "plural_name": "Breweries", "icon": {"prefix": "https://ss3.4sqi.net/img/categories_v2/food/brewery_", "suffix": ".png"}}], "chains": [], "closed_bucket": "VeryLikelyOpen", "distance": 25677, "geocodes": {"main": {"latitude": 39.721361, "longitude": -104.98703}, "roof": {"latitude": 39.721361, "longitude": -104.98703}}, "link": "/v3/places/53c1d4ea498e3a62e89b5da4", "location": {"address": "320 N Broadway", "address_extended": "Ste E", "census_block": "080310028025009", "country": "US", "cross_street": "3rd Ave", "dma": "Denver", "formatted_address": "320 N Broadway (3rd Ave), Denver, CO 80203", "locality": "Denver", "postcode": "80203", "region": "CO"}, "name": "Baere Brewing Company", "related_places": {}, "timezone": "America/Denver"}, {"fsq_id": "57f583d1498e9f3cdf086deb", "categories": [{"id": 13029, "name": "Brewery", "short_name": "Brewery", "plural_name": "Breweries", "icon": {"prefix": "https://ss3.4sqi.net/img/categories_v2/food/brewery_", "suffix": ".png"}}, {"id": 13068, "name": "American Restaurant", "short_name": "American", "plural_name": "American Restaurants", "icon": {"prefix": "https://ss3.4sqi.net/img/categories_v2/food/default_", "suffix": ".png"}}], "chains": [], "closed_bucket": "VeryLikelyOpen", "distance": 21652, "geocodes": {"main": {"latitude": 39.751036, "longitude": -105.020288}, "roof": {"latitude": 39.751036, "longitude": -105.020288}}, "link": "/v3/places/57f583d1498e9f3cdf086deb", "location": {"address": "2298 N Clay St", "census_block": "080310006004006", "country": "US", "cross_street": "", "dma": "Denver", "formatted_address": "2298 N Clay St, Denver, CO 80211", "locality": "Denver", "postcode": "80211", "region": "CO"}, "name": "Briar Common", "related_places": {}, "timezone": "America/Denver"}, {"fsq_id": "40e0b100f964a5202c041fe3", "categories": [{"id": 13016, "name": "Lounge", "short_name": "Lounge", "plural_name": "Lounges", "icon": {"prefix": "https://ss3.4sqi.net/img/categories_v2/nightlife/default_", "suffix": ".png"}}, {"id": 13029, "name": "Brewery", "short_name": "Brewery", "plural_name": "Breweries", "icon": {"prefix": "https://ss3.4sqi.net/img/categories_v2/food/brewery_", "suffix": ".png"}}, {"id": 13068, "name": "American Restaurant", "short_name": "American", "plural_name": "American Restaurants", "icon": {"prefix": "https://ss3.4sqi.net/img/categories_v2/food/default_", "suffix": ".png"}}], "chains": [], "closed_bucket": "LikelyOpen", "distance": 22012, "geocodes": {"main": {"latitude": 39.753529, "longitude": -104.998503}, "roof": {"latitude": 39.753529, "longitude": -104.998503}}, "link": "/v3/places/40e0b100f964a5202c041fe3", "location": {"address": "1634 18th St", "census_block": "080310017043002", "country": "US", "dma": "Denver", "formatted_address": "1634 18th St, Denver, CO 80202", "locality": "Denver", "postcode": "80202", "region": "CO"}, "name": "Wynkoop Brewing Company", "related_places": {}, "timezone": "America/Denver"}, {"fsq_id": "50bd2199498ea82ed08e014d", "categories": [{"id": 13006, "name": "Beer Bar", "short_name": "Beer Bar", "plural_name": "Beer Bars", "icon": {"prefix": "https://ss3.4sqi.net/img/categories_v2/nightlife/pub_", "suffix": ".png"}}, {"id": 13007, "name": "Beer Garden", "short_name": "Beer Garden", "plural_name": "Beer Gardens", "icon": {"prefix": "https://ss3.4sqi.net/img/categories_v2/nightlife/beergarden_", "suffix": ".png"}}, {"id": 13029, "name": "Brewery", "short_name": "Brewery", "plural_name": "Breweries", "icon": {"prefix": "https://ss3.4sqi.net/img/categories_v2/food/brewery_", "suffix": ".png"}}], "chains": [], "closed_bucket": "VeryLikelyOpen", "distance": 22497, "geocodes": {"main": {"latitude": 39.768707, "longitude": -105.234822}, "roof": {"latitude": 39.768707, "longitude": -105.234822}}, "link": "/v3/places/50bd2199498ea82ed08e014d", "location": {"address": "393 Washington Ave", "address_extended": "Unit A", "census_block": "080590098541000", "country": "US", "cross_street": "Highway 93", "dma": "Denver", "formatted_address": "393 Washington Ave (Highway 93), Golden, CO 80403", "locality": "Golden", "postcode": "80403", "region": "CO"}, "name": "Cannonball Creek Brewing Company", "related_places": {}, "timezone": "America/Denver"}, {"fsq_id": "4f63fba1e4b036e3e792341d", "categories": [{"id": 13006, "name": "Beer Bar", "short_name": "Beer Bar", "plural_name": "Beer Bars", "icon": {"prefix": "https://ss3.4sqi.net/img/categories_v2/nightlife/pub_", "suffix": ".png"}}, {"id": 13029, "name": "Brewery", "short_name": "Brewery", "plural_name": "Breweries", "icon": {"prefix": "https://ss3.4sqi.net/img/categories_v2/food/brewery_", "suffix": ".png"}}, {"id": 13065, "name": "Restaurant", "short_name": "Restaurant", "plural_name": "Restaurants", "icon": {"prefix": "https://ss3.4sqi.net/img/categories_v2/food/default_", "suffix": ".png"}}], "chains": [], "closed_bucket": "Unsure", "distance": 20920, "geocodes": {"drop_off": {"latitude": 39.761396, "longitude": -105.006702}, "main": {"latitude": 39.76136, "longitude": -105.006755}, "roof": {"latitude": 39.76136, "longitude": -105.006755}}, "link": "/v3/places/4f63fba1e4b036e3e792341d", "location": {"address": "2540 19th St", "census_block": "080310011023002", "country": "US", "dma": "Denver", "formatted_address": "2540 19th St, Denver, CO 80211", "locality": "Denver", "postcode": "80211", "region": "CO"}, "name": "Prost Brewing Company", "related_places": {}, "timezone": "America/Denver"}, {"fsq_id": "4a91aec5f964a520571b20e3", "categories": [{"id": 13029, "name": "Brewery", "short_name": "Brewery", "plural_name": "Breweries", "icon": {"prefix": "https://ss3.4sqi.net/img/categories_v2/food/brewery_", "suffix": ".png"}}, {"id": 13068, "name": "American Restaurant", "short_name": "American", "plural_name": "American Restaurants", "icon": {"prefix": "https://ss3.4sqi.net/img/categories_v2/food/default_", "suffix": ".png"}}, {"id": 13387, "name": "Winery", "short_name": "Winery", "plural_name": "Wineries", "icon": {"prefix": "https://ss3.4sqi.net/img/categories_v2/food/winery_", "suffix": ".png"}}], "chains": [], "closed_bucket": "VeryLikelyOpen", "distance": 17329, "geocodes": {"main": {"latitude": 39.815958, "longitude": -104.964914}, "roof": {"latitude": 39.815958, "longitude": -104.964914}}, "link": "/v3/places/4a91aec5f964a520571b20e3", "location": {"address": "1946 E 66th Ave", "census_block": "080010150002055", "country": "US", "cross_street": "York", "dma": "Denver", "formatted_address": "1946 E 66th Ave (York), Denver, CO 80229", "locality": "Denver", "postcode": "80229", "region": "CO"}, "name": "Balistreri Vineyards", "related_places": {}, "timezone": "America/Denver"}, {"fsq_id": "527be96511d26f35784d00cf", "categories": [{"id": 13003, "name": "Bar", "short_name": "Bar", "plural_name": "Bars", "icon": {"prefix": "https://ss3.4sqi.net/img/categories_v2/nightlife/pub_", "suffix": ".png"}}, {"id": 13029, "name": "Brewery", "short_name": "Brewery", "plural_name": "Breweries", "icon": {"prefix": "https://ss3.4sqi.net/img/categories_v2/food/brewery_", "suffix": ".png"}}], "chains": [], "closed_bucket": "LikelyOpen", "distance": 17495, "geocodes": {"main": {"latitude": 39.786882, "longitude": -105.034359}, "roof": {"latitude": 39.786882, "longitude": -105.034359}}, "link": "/v3/places/527be96511d26f35784d00cf", "location": {"address": "4970 Lowell Blvd", "census_block": "080310154004004", "country": "US", "cross_street": "", "dma": "Denver", "formatted_address": "4970 Lowell Blvd, Denver, CO 80221", "locality": "Denver", "postcode": "80221", "region": "CO"}, "name": "Goldspot Brewing Company", "related_places": {}, "timezone": "America/Denver"}, {"fsq_id": "4bf48eaccad2c9282f219c99", "categories": [{"id": 13006, "name": "Beer Bar", "short_name": "Beer Bar", "plural_name": "Beer Bars", "icon": {"prefix": "https://ss3.4sqi.net/img/categories_v2/nightlife/pub_", "suffix": ".png"}}, {"id": 13025, "name": "Wine Bar", "short_name": "Wine Bar", "plural_name": "Wine Bars", "icon": {"prefix": "https://ss3.4sqi.net/img/categories_v2/food/winery_", "suffix": ".png"}}, {"id": 13029, "name": "Brewery", "short_name": "Brewery", "plural_name": "Breweries", "icon": {"prefix": "https://ss3.4sqi.net/img/categories_v2/food/brewery_", "suffix": ".png"}}], "chains": [], "closed_bucket": "LikelyOpen", "distance": 23258, "geocodes": {"drop_off": {"latitude": 39.737223, "longitude": -105.014927}, "front_door": {"latitude": 39.737182, "longitude": -105.014856}, "main": {"latitude": 39.737182, "longitude": -105.014856}, "roof": {"latitude": 39.737275, "longitude": -105.014905}}, "link": "/v3/places/4bf48eaccad2c9282f219c99", "location": {"address": "1330 Zuni St", "address_extended": "Ste M", "census_block": "080310019011022", "country": "US", "cross_street": "13th and Zuni", "dma": "Denver", "formatted_address": "1330 Zuni St (13th and Zuni), Denver, CO 80204", "locality": "Denver", "postcode": "80204", "region": "CO"}, "name": "Strange Craft Beer Company", "related_places": {}, "timezone": "America/Denver"}, {"fsq_id": "51c791068bbd776b7b995cf8", "categories": [{"id": 13006, "name": "Beer Bar", "short_name": "Beer Bar", "plural_name": "Beer Bars", "icon": {"prefix": "https://ss3.4sqi.net/img/categories_v2/nightlife/pub_", "suffix": ".png"}}, {"id": 13007, "name": "Beer Garden", "short_name": "Beer Garden", "plural_name": "Beer Gardens", "icon": {"prefix": "https://ss3.4sqi.net/img/categories_v2/nightlife/beergarden_", "suffix": ".png"}}, {"id": 13029, "name": "Brewery", "short_name": "Brewery", "plural_name": "Breweries", "icon": {"prefix": "https://ss3.4sqi.net/img/categories_v2/food/brewery_", "suffix": ".png"}}], "chains": [], "closed_bucket": "LikelyOpen", "distance": 20818, "geocodes": {"main": {"latitude": 39.753148, "longitude": -105.053512}, "roof": {"latitude": 39.753148, "longitude": -105.053512}}, "link": "/v3/places/51c791068bbd776b7b995cf8", "location": {"address": "2501 Sheridan Blvd", "census_block": "080590113001000", "country": "US", "cross_street": "W 25th Ave", "dma": "Denver", "formatted_address": "2501 Sheridan Blvd (W 25th Ave), Edgewater, CO 80214", "locality": "Edgewater", "postcode": "80214", "region": "CO"}, "name": "Joyride Brewing", "related_places": {"children": [{"fsq_id": "5d216d523221cb0023eb33dc", "categories": [{"id": 13029, "name": "Brewery", "short_name": "Brewery", "plural_name": "Breweries", "icon": {"prefix": "https://ss3.4sqi.net/img/categories_v2/food/brewery_", "suffix": ".png"}}], "name": "Roger\u2019s Rooftop Bar"}]}, "timezone": "America/Denver"}, {"fsq_id": "5d2a2c83afbe290023906aeb", "categories": [{"id": 13003, "name": "Bar", "short_name": "Bar", "plural_name": "Bars", "icon": {"prefix": "https://ss3.4sqi.net/img/categories_v2/nightlife/pub_", "suffix": ".png"}}, {"id": 13029, "name": "Brewery", "short_name": "Brewery", "plural_name": "Breweries", "icon": {"prefix": "https://ss3.4sqi.net/img/categories_v2/food/brewery_", "suffix": ".png"}}], "chains": [], "closed_bucket": "VeryLikelyOpen", "distance": 21328, "geocodes": {"main": {"latitude": 39.767448, "longitude": -104.976992}, "roof": {"latitude": 39.767448, "longitude": -104.976992}}, "link": "/v3/places/5d2a2c83afbe290023906aeb", "location": {"address": "3400 Blake St", "census_block": "080310016011005", "country": "US", "cross_street": "34th St", "dma": "Denver", "formatted_address": "3400 Blake St (34th St), Denver, CO 80205", "locality": "Denver", "postcode": "80205", "region": "CO"}, "name": "River North Brewery", "related_places": {}, "timezone": "America/Denver"}], "context": {"geo_bounds": {"circle": {"center": {"latitude": 39.9382, "longitude": -105.0911}, "radius": 22000}}}}]